X,Y,OBJECTID,Project_ID,Project_Name,Project_Street_Number,Project_Street_Name,Project_Street_Suffix,Project_Zip_Code,Neighborhood,Project_Record_Type,Project_Status,Filed_Date,BPDA_Board_Approval,First_Building_Permit,COO_Permit_Date,Last_Project_Update_Date,Gross_Square_Footage,Description,Website_URL,Lat,Lon,Gross_Floor_Area,RnD_sqft,Shape
764853.067664385,2942945.95786947,21411,2501,Jackson Square Recreation Center,1522,Columbus,Avenue,2119,Roxbury,NPC,Board Approved,2016/12/15 00:00:00+00,2011/06/16 00:00:00+00,,,,38500,"The proposed project as described in the NPC calls for the construction of a two story, approximately 75,000 square feet recreational center. The Center will be served by 50 at grade parking spaces.",http://www.bostonplans.org/projects/development-projects/jackson-square-recreation-center,42.3229,-71.0981,75000,0,
766147.926951304,2932274.46116789,21412,2502,Brooke Charter High School,198-260,American Legion,Highway,2124,Mattapan,Large Project,Construction Complete,2016/12/09 00:00:00+00,2017/03/16 00:00:00+00,2017/06/22 00:00:00+00,2018/08/21 00:00:00+00,2017/04/20 00:00:00+00,95000,"The Brooke Charter High School proposed the construction of approximately 95,000 gross square foot new school building to accommodate approximately 780 students in grades 8 through 12. The building will include core and specialty classrooms, a gymnasium, a cafeteria, an auditorium, administrative spaces, and various support spaces. The Project will also include outdoor educational space, a garden area, approximately 60 off-street parking spaces and loading/circulation areas. The school is to be located within the Olmsted Green East Campus on Parcels 2B-2 and 2B-3, located at 198-260 American Legion Highway and Kingbird Road in Mattapan.",http://www.bostonplans.org/projects/development-projects/brooke-charter-high-school,42.2936,-71.0935,95000,0,
767973.616213307,2951925.76668148,21413,2508,1000 Boylston Street,1000,Boylston,Street,2115,Back Bay,Large Project,Board Approved,2017/01/05 00:00:00+00,2018/03/15 00:00:00+00,,,2019/05/28 00:00:00+00,513000,"The Proposed Project consists of a single condominium tower containing up to approximately 108 condominium units, rising from a Podium base containing approximately 45,500 square feet of first and second-story retail and restaurant space fronting on Dalton, Boylston and St. Cecilia Streets, a two-story above-grade parking garage containing approximately 175 spaces, and an amenities floor. A greenspace and outdoor amenity area for the condominium unit owners will be located on the roof level of the Podium. The second residential building proposed in the PNF has been eliminated resulting in reduced potential environmental impacts.

Prior planning for this project can be viewed at http://tinyurl.com/Parcels12-15",http://www.bostonplans.org/projects/development-projects/1000-boylston-street,42.3475,-71.0864,439500,0,
753172.933872476,2955175.03347689,21414,2509,Allston Yards Building B,400,Guest,Street,2134,Allston,Large Project,Board Approved,2018/01/22 00:00:00+00,2019/12/12 00:00:00+00,,,2023/01/27 00:00:00+00,636500,400 Guest Street (Building B) in the Allston Yards redevelopment is an office/research building.,http://www.bostonplans.org/projects/development-projects/allston-yards-building-b,42.3566,-71.1411,634500,350000,
765722.977998048,2947687.61078772,21415,2510,Wentworth Multipurpose Academic Building,555,Parker,Street,2215,Mission Hill,Large Project,Construction Complete,2017/01/13 00:00:00+00,2017/05/11 00:00:00+00,2017/08/09 00:00:00+00,2018/11/08 00:00:00+00,2017/06/29 00:00:00+00,69000,"The MpA Building will contain laboratories, student learning and group meeting space, offices, and support/storage space on floors two through four, and a first-floor maker space, manufacturing, and gathering space.",http://www.bostonplans.org/projects/development-projects/wentworth-multipurpose-academic-building,42.3359,-71.0948,69000,0,
748444.522725642,2927714.4958784,21416,2511,425 LaGrange Street,425,LaGrange,Street,2132,West Roxbury,Small Project,Construction Complete,2016/02/17 00:00:00+00,2016/03/17 00:00:00+00,2020/12/18 00:00:00+00,2023/05/24 00:00:00+00,2023/05/22 00:00:00+00,47700,Construct a new residential homeownership building with 40 units and off-street parking for 65 vehicles.,http://www.bostonplans.org/projects/development-projects/425-lagrange-street,42.2813,-71.159,47700,0,
749144.948490143,2948635.20666157,21417,2512,1954 Commonwealth Avenue,1954,Commonwealth,Avenue,2135,Brighton,Small Project,Prefile (Default),,2016/09/15 00:00:00+00,,,2016/09/15 00:00:00+00,0,The Proposed Project calls for the renovation of an existing three (3) unit building and the creation of a thirteen (13) unit buildings with 19 off-street parking spaces.  In total the development will consist of sixteen (16) units and 19 parking spaces.  The building will include fourteen (14) two-bedroom and two (2) three-bedroom rental units.,,42.3387,-71.1561,0,,
776984.169714466,2950294.8503239,21418,2513,105 West First Street,105,West First,Street,2127,South Boston,Large Project,Permitted / Under Construction,2017/01/30 00:00:00+00,2017/06/15 00:00:00+00,,,2020/04/06 00:00:00+00,266000,"Breakthrough Properties (the Proponent), an affiliate of Tishman Speyer, has commenced the redevelopment of an approximately 42,219 square foot site (the Project Site) located at 105 West First Street in South Boston. The 105 West First Street project (the Project) will comprise an eight story, approximately 266,000 square foot office/lab/research and development building containing 1,600+ square feet of ground floor space on West First Street for retail, café or restaurant use and 2,400+ square feet of convener space on West First Street, 10,000+ square feet of innovation space fronting on West Second Street, and 3,000+ square feet of tenant amenity space. The retail/restaurant/café use and innovation space on West First Street and West Second Street respectively are designed to activate the ground floor level of the building.",http://www.bostonplans.org/Projects/Development-Projects/105-West-First-Street,42.3429,-71.0531,249000,232000,
762235.529592395,2935827.49605656,21419,2514,50 Stedman Street,50,Stedman,Street,2130,Jamaica Plain,Small Project,Construction Complete,2018/10/04 00:00:00+00,2019/02/14 00:00:00+00,2021/03/12 00:00:00+00,2022/09/02 00:00:00+00,2022/08/09 00:00:00+00,31216,"The proposed 50 Stedman Street project consists of the demolition of the existing single-story commercial building on the approximately 14,344 square feet project site, and the construction of a three (3)-story, approximately twenty-one (21) unit residential building with parking for twenty-one (21) vehicles. The Proposed Project totals approximately 31,216 gross square feet.",http://www.bostonplans.org/Projects/Development-Projects/50-Stedman-Street,42.3034,-71.1079,23841,0,
770051.469669133,2947198.38210739,21420,2516,One Newcomb Place,1,Newcomb,Street,2118,Roxbury,Small Project,Construction Complete,2017/03/20 00:00:00+00,2017/05/11 00:00:00+00,2021/05/06 00:00:00+00,2021/08/27 00:00:00+00,2019/06/07 00:00:00+00,24665,Proposal consists of 23 residential rental units including 3 affordable units.,http://www.bostonplans.org/Projects/Development-Projects/One-Newcomb-Place,42.3345,-71.0788,24665,0,
748879.699348718,2920427.83098981,21421,2518,5205 Washington Street,5205,Washington,Street,2132,West Roxbury,Small Project,Permitted / Under Construction,2017/03/17 00:00:00+00,2017/05/11 00:00:00+00,2019/02/06 00:00:00+00,,2018/06/21 00:00:00+00,22674,"A 22,674 gross square foot, 17 unit, 4 story residential building with 26 parking spaces.",http://www.bostonplans.org/projects/development-projects/5205-washington-street,42.2613,-71.1575,22674,0,
760981.29522422,2943948.43027398,21422,2519,Goddard House,201,South Huntington,Avenue,2130,Jamaica Plain,Large Project,Construction Complete,2017/02/24 00:00:00+00,2017/03/16 00:00:00+00,2017/08/30 00:00:00+00,2019/07/29 00:00:00+00,2018/08/17 00:00:00+00,150000,"The proposed project is the rehabilitation and expansion of the Goddard House to create 149 rental units, of which 19 will be income restricted.",http://www.bostonplans.org/Projects/Development-Projects/Goddard-House,42.3257,-71.1124,150000,0,
778782.575894549,2947644.02032372,21423,2520,457-469A West Broadway,457-469,West Broadway,,2127,South Boston,Large Project,Construction Complete,2020/07/08 00:00:00+00,2020/12/17 00:00:00+00,2020/06/15 00:00:00+00,2022/04/05 00:00:00+00,2022/05/08 00:00:00+00,76274,"Navem West Broadway, LLC is requesting Notice of Project Change of mixed-use development now Under Construction to change from rental housing units to condominiums.Project is an approximately 65,282 square foot building containing 44 units with 66 garage parking spaces, and includes six (6) IDP Units (affordable) and 13,500 square feet of commercial retail space.",http://www.bostonplans.org/projects/development-projects/457-469a-west-broadway,42.3356,-71.0465,65282,0,
763834.446998224,2946804.09352589,21424,2521,95 St. Alphonsus Street,95,St. Alphonsus,Street,2120,Mission Hill,Large Project,Construction Complete,2017/06/13 00:00:00+00,2017/11/16 00:00:00+00,2019/07/03 00:00:00+00,2021/10/14 00:00:00+00,2022/02/15 00:00:00+00,111665,"Wingate Development is proposing a 6 story, 111,665 gsf, 115 unit, as-of-right development on 95 St. Alphonsus Street.",http://www.bostonplans.org/Projects/Development-Projects/95-St-Alphonsus-Street,42.3335,-71.1018,111665,0,
775279.624567136,2940082.03544773,21425,2522,54 Pleasant Street,54,Pleasant,Street,2125,Dorchester,Small Project,Construction Complete,2017/06/19 00:00:00+00,2017/09/14 00:00:00+00,2018/09/07 00:00:00+00,2020/03/24 00:00:00+00,2019/10/28 00:00:00+00,22530,"Redevelopment of an  located at 54 Pleasant Street, Dorchester.  The proposal is for 17 condominiums, consisting of approximately 22,530 SF.  There will be 20 parking spaces, The site was a funeral home and is 14,688 SF.",http://www.bostonplans.org/projects/development-projects/54-pleasant-street,42.3149,-71.0596,22530,0,
774587.752919391,2943139.65072356,21426,2523,Pipefitters Association Local 537 Training and Office Facility,40,Enterprise,Street,2125,Dorchester,Large Project,Construction Complete,2017/05/31 00:00:00+00,2017/07/13 00:00:00+00,2017/12/13 00:00:00+00,2018/11/21 00:00:00+00,2017/10/16 00:00:00+00,70000,"The Proposed Project consists of the demolition of the existing structures on the site and the construction of an approximately 70,000 square foot training and office facility and approx. 117 off-street parking spaces to be occupied by Local Union 537.",http://www.bostonplans.org/projects/development-projects/pipefitters-association-local-537-training-and-off,42.3233,-71.0621,70000,0,
752406.900955722,2950908.0301999,21427,2524,101-105 Washington Street,101-105,Washington,Street,2135,Brighton,Large Project,Permitted / Under Construction,2017/03/01 00:00:00+00,2017/03/16 00:00:00+00,2020/01/03 00:00:00+00,,2022/03/15 00:00:00+00,99645,"Build a new Synagogue, a new residential building with 70 rental units and build a new Mikvah facility with off-street parking for 82 vehicles 70 below-grade spaces with 12 surface spaces.",http://www.bostonplans.org/projects/development-projects/101-105-washington-street,42.3449,-71.144,99645,0,
767979.973155975,2945038.1305224,21428,2525,2451 Washington Street,2451,Washington,Street,2119,Roxbury,Small Project,Construction Complete,2017/03/21 00:00:00+00,2017/05/11 00:00:00+00,2018/08/23 00:00:00+00,2021/02/11 00:00:00+00,2018/11/02 00:00:00+00,22630,"Madison Park Development Corporation (MPDC) is proposing to construct a four story building with 16 units, of which 7 will be Inclusionary Development Policy Units, 14 off-street sheltered parking spaces, two off-street open parking spaces and a loading space to provide homeownership opportunities in the Dudley Square area. The building will occupy frontage at the corner of Washington St. and Shawmut Ave. It is across from the Area B2B police station on Washington Street.",http://www.bostonplans.org/projects/development-projects/2451-washington-street,42.3286,-71.0865,22630,0,
779636.843214884,2959784.06034806,21429,2528,99 Sumner Street,99-111,Sumner,Street,2128,East Boston,Large Project,Construction Complete,2017/04/10 00:00:00+00,2017/07/13 00:00:00+00,2019/06/26 00:00:00+00,2021/08/16 00:00:00+00,2020/11/02 00:00:00+00,125678,"The revised project consists of  the construction of a 6-story mixed-use building with approx. 107 residential units, 6,500 square feet of shared work space, and 80 off-street parking spaces.",http://www.bostonplans.org/projects/development-projects/99-sumner-street,42.3689,-71.0431,125614,0,
752633.582588971,2954881.22861831,21430,2530,46 Hichborn Street,46,Hichborn,Street,2135,Brighton,Small Project,Construction Complete,2017/10/02 00:00:00+00,2017/12/14 00:00:00+00,2018/12/28 00:00:00+00,2021/05/26 00:00:00+00,2018/07/02 00:00:00+00,49679,"Proposal is a five-story, 46 condo units and 50 parking spaces totaling approximately 49,679 Square Feet.",http://www.bostonplans.org/projects/development-projects/46-hichborn-street,42.3558,-71.1431,49679,0,
771053.671076804,2952268.89263564,21431,2531,40 Trinity Place,40,Trinity,Place,2116,Back Bay,Large Project,Construction Complete,2015/12/28 00:00:00+00,2016/04/14 00:00:00+00,2019/07/10 00:00:00+00,2023/06/01 00:00:00+00,2023/02/13 00:00:00+00,379370,"40 Trinity Place is a proposed 31-story building with approximately 154 hotel rooms, approximately 146 residential units (including 7 income restricted units), and ground floor restaurant/retail space.",http://www.bostonplans.org/projects/development-projects/40-trinity-place,42.3484,-71.075,431273,0,
753077.838918298,2952077.00489606,21432,2532,Brighton Marine Health Center Residential Development,1465,Commonwealth,Avenue,2135,Brighton,Large Project,Construction Complete,2016/08/04 00:00:00+00,2016/09/15 00:00:00+00,2017/12/28 00:00:00+00,2020/01/24 00:00:00+00,2017/12/12 00:00:00+00,110000,,http://www.bostonplans.org/projects/development-projects/brighton-marine-health-center,42.3481,-71.1415,110000,0,
765455.530042142,2929938.86478923,21433,2533,Olmsted Green Residential,591,Morton,Street,2124,Mattapan,Large Project,Permitted / Under Construction,2016/03/17 00:00:00+00,2012/11/15 00:00:00+00,2013/06/26 00:00:00+00,,2022/10/13 00:00:00+00,629049,"The residential portions of the Olmsted Green development consist of 140 homeownership units, 100 mixed income rental units, 198 affordable rental units, and Hearth Senior Housing (59 units).",https://www.bostonplans.org/projects/development-projects/olmsted-green-residential,42.2872,-71.0961,629049,0,
770862.332548723,2936378.95984864,21434,2537,185-191 Geneva Avenue,185-191,Geneva,Avenue,2121,Dorchester,Small Project,Permitted / Under Construction,2018/01/31 00:00:00+00,2018/03/15 00:00:00+00,,,2020/09/03 00:00:00+00,31653,The proposal is for a five story residential development with 27 units and 8 parking spaces. The project is 200 feet from the Four Corners/Geneva Fairmount Line station.,http://www.bostonplans.org/projects/development-projects/185-191-geneva-avenue,42.3048,-71.076,31653,0,
773299.326362386,2941238.05741389,21435,2538,734 Dudley Street,734,Dudley,Street,2125,Dorchester,Small Project,Board Approved,2017/04/24 00:00:00+00,2017/06/15 00:00:00+00,2019/08/01 00:00:00+00,,2023/04/13 00:00:00+00,31273,"734 Dudley Street consists of 25 housing units, three commercial retail spaces and 5 parking spaces.  The housing units will have 4 Wendover Street as an address and entrance. The site has onsite parking for bicycles.",http://www.bostonplans.org/projects/development-projects/734-dudley-street,42.3181,-71.0669,28534,0,
763193.482728973,2939257.50658497,21436,1002,Brookside Studios,57-67,Brookside,Avenue,2130,Jamaica Plain,Small Project,Construction Complete,,,,,,29000,18 affordable artist live/work units (no change in use required so does not require Article 80) plus 5 commercial condo units for complementary arts uses.,,42.3128,-71.1043,29000,0,
761364.698984966,2942893.34248914,21437,1003,MSPCA Angell - Clinical Building,350,South Huntington,Avenue,,Jamaica Plain,Small Project,Construction Complete,,2004/08/19 00:00:00+00,,,,30982,New construction for one story addition (approx. 40K SF) for clinical use + site improvements.,,42.3228,-71.111,23000,0,
770418.169066966,2933206.26639089,21438,1004,Norwell Whitfield Homes,215,Norwell,Street,2124,Dorchester,Small Project,Construction Complete,,2004/09/01 00:00:00+00,,,,35000,Development of 22 affordable homeownership unit project on City-owned lots in the Four Corners area in Dorchester.,,42.2961,-71.0777,35000,0,
769067.897817388,2938228.67465314,21439,1005,Silver Building,447,Blue Hill,Ave,,Roxbury,Small Project,Construction Complete,,,,,,17000,"Rehabilitation of the Silver Building in Grove Hall into a 18,000 Square Feet Retail/Commercial Space.",,42.3099,-71.0826,17000,0,
770535.19639197,2936887.53035381,21440,1006,Dorchester Community Service Center,185,Columbia,Road,,Dorchester,Small Project,Construction Complete,2004/04/22 00:00:00+00,2004/06/03 00:00:00+00,,,,41000,"Develop a 45,000 SF social service facility on DND vacant lots totaling 42,000SF on Columbia Road, Dorchester,",,42.3062,-71.0772,41000,0,
775343.840317965,2953821.26748364,21441,1007,Lafayette Lofts,88,Kingston,Street,2111,Downtown,Small Project,Construction Complete,,2003/10/23 00:00:00+00,,,,60000,Rehab existing building to contain 42 residential units.,,42.3526,-71.0591,60000,0,
767621.31442447,2952106.27485064,21442,1008,360 Newbury Street - Virgin Records,360,Newbury,Street,2115,Back Bay,Large Project,Construction Complete,2004/01/20 00:00:00+00,2004/04/01 00:00:00+00,,,,76453,Convert floors 4-8 to 54 residential units. Virgin Records on ground floors.,,42.348,-71.0877,82003,0,
776429.641952142,2958127.16963297,21443,1010,44 Prince Street,44,Prince,Street,2113,North End,Large Project,Construction Complete,2003/11/14 00:00:00+00,2004/01/29 00:00:00+00,,,,66500,57 condominium units,,42.3644,-71.055,65850,0,
768977.439336881,2945662.51247573,21444,1011,Palmer Street,"17,19,19A","Palmer Street, 2-6A, 8 Warren",Street,2119,Roxbury,Small Project,Construction Complete,,,,,,26136,A 3 story building with ground floor retail/commercial and two floors of office space.,,42.3303,-71.0828,26136,0,
763891.587631971,2946148.39339373,21445,1013,School of the Museum of Fine Arts - Mission Hill Building,35,Pontiac,Street,,Mission Hill,Small Project,Construction Complete,,2004/04/27 00:00:00+00,,,,58200,"20,000 SF SPR at 35 Pontiac Street.",,42.3317,-71.1016,40000,0,
775835.678901225,2952803.41551672,21446,1014,210 South Street Residential,210,South,Street,2111,Leather District,Large Project,Construction Complete,2004/01/24 00:00:00+00,2004/04/27 00:00:00+00,,,,116280,"Change of use Office to Residential, yeilding approximately 54 units  and ground floor retail.  Developer has agreed to provide affordable housing component.",,42.3498,-71.0573,106000,0,
770081.207470551,2946651.88910589,21447,1017,47 Thorndike Street,47,Thorndike,Street,2118,Roxbury,Small Project,Construction Complete,,,,,,2630,"vacant, 3-story brick building and abutting site to be developed into supportive office space for Rosie's Place",,42.333,-71.0787,2630,0,
756237.915603384,2952710.02889247,21448,1019,214 Harvard Avenue,214,Harvard,Avenue,,Allston,Small Project,Construction Complete,,,,,,15000,"Staples retail store to this location. App. 15,000 sq.ft.",,42.3498,-71.1298,15000,0,
778142.249091223,2956241.13436306,21449,102,New England Aquarium,250,Atlantic,Avenue,,Downtown,Large Project,Construction Complete,1995/01/01 00:00:00+00,,,,,165000,"Proposed expansion of the New England Aquarium includes west wing addition, new east wing, public access/ open space, an auditorium, and renovations to the existing structure.",,42.3592,-71.0487,165000,,
756965.590657219,2916052.23475415,21450,1020,Glenwood Avenue Project,2,Glennwood,Avenue,2136,Hyde Park,Small Project,Construction Complete,2003/09/09 00:00:00+00,2003/10/23 00:00:00+00,,,,41400,10 two unit townhouse buildings Small Project Review.,,42.2492,-71.1277,34000,0,
769439.978109971,2945081.69736439,21451,1023,208 Dudley Street,208,Dudley,Street,,Roxbury,Small Project,Construction Complete,,,,,,0,LDA regarding BRA property disposed of in 1996 to George Herbert. Stanley and Barbara Byfield will purchase property and turn into Pepper Pot Restaurant.,,42.3287,-71.0811,0,0,
772967.502879053,2948014.70560598,21452,1026,BioSquare I - BioSquare Research Building III (Parcel D),670,Albany,Street,2118,South End,Large Project,Construction Complete,,2003/12/18 00:00:00+00,,2005/01/01 00:00:00+00,2005/11/14 00:00:00+00,160000,"Proposal for Parcel D includes 160,000 Office/R&D building.  Previously reviewed and approved under Article 31 for Parcels A, B, C, D, E and F in 1991.",,42.3367,-71.068,160000,160000,
777036.603664726,2945448.24059457,21453,1028,309 Old Colony Condominiums,309,Old Colony,Avenue,,South Boston,Small Project,Construction Complete,2004/01/14 00:00:00+00,2004/02/24 00:00:00+00,,,,31590,"Proposal calls for the construction of 16 condominium units above existing retail space, with a total 4 storiesand 27 parking spaces. Greg Donovan is now proposing to do 9 condos.",,42.3296,-71.053,31590,0,
776594.449693382,2947268.06307039,21454,1029,Old Colony Square,152,Old Colony,Avenue,2127,South Boston,Small Project,Construction Complete,2004/07/13 00:00:00+00,2005/04/28 00:00:00+00,,,2005/09/20 00:00:00+00,28920,A 20 unit project with 1 commercial unit at the ground floor and 21 parking spaces.,,42.3346,-71.0546,26885,0,
777481.871146888,2963599.13801973,21455,103,Building 114,,"16th Street, CNY",,2129,Charlestown,Large Project,Construction Complete,,,,,,90000,"Building completed, MGH owned. PUC committee meeting to determine FPA for first floor per C. 91 regulations.",,42.3794,-71.051,90000,,
752093.307750881,2954806.08867672,21456,1032,Nolan Brother Self Storage,145,North Beacon,Street,,Brighton,Large Project,Construction Complete,2004/05/07 00:00:00+00,2004/08/05 00:00:00+00,,,,259500,"259,000 GSF self storage center. Bldg permit # 3935",,42.3556,-71.1451,259000,0,
755943.142570883,2933357.79430306,21457,1035,Hebrew Rehabilitation Center,1200,Centre,Street,2131,Roslindale,Small Project,Prefile (Default),,,,,,0,"Redevelopment and expansion program, no defined plans yet.",,42.2967,-71.1312,0,0,
768463.507293895,2945696.44711915,21458,1037,CBES Headquarters Building,2301-2315,Washington,Street,,Roxbury,Small Project,Construction Complete,2004/02/04 00:00:00+00,2004/03/11 00:00:00+00,,,,24200,"Project will consist of the demolition of existing building, and construct a three story headquarter office building for CBES with 53 parking spaces",,42.3304,-71.0847,24200,0,
768625.212351054,2945806.56271257,21459,1038,2261-2285 Washington Street(Walgreens Proposal),2261-2285,Washington,Street,,Roxbury,Small Project,Construction Complete,2004/08/13 00:00:00+00,2005/04/28 00:00:00+00,,,,23511,Proposal calls for a Walgreens in existing building at 2261 Washington Street with approximately 30 surface level parking spaces.,,42.3307,-71.0841,23511,0,
778506.208993226,2948772.27790973,21460,1043,321 West Second Street Condominiums,208,Bolton,Street,2127,South Boston,Small Project,Construction Complete,2004/02/09 00:00:00+00,2004/04/01 00:00:00+00,,,,15000,15 unit condo project with 24 parking spaces.,,42.3387,-71.0475,23000,0,
778270.855461299,2931934.55371122,21461,1044,Stop and Shop - 545 Freeport Street,,Freeport,Street,,Dorchester,NPC,Construction Complete,,2004/05/13 00:00:00+00,,,,90365,,,42.2925,-71.0487,0,0,
772342.715414718,2948594.63292381,21462,1045,700 Harrison Avenue,700,Harrison,Avenue,2118,South End,NPC,Construction Complete,2004/04/29 00:00:00+00,2005/02/03 00:00:00+00,,,,107868,"A new five-story building with 84 units of which 50 are affordable, 5,575 s.f. of retail space, 180 parking space & community garden",,42.3383,-71.0703,107868,0,
766585.904749885,2948165.48089498,21463,1046,Northeastern University - West Village Residence Hall F,40,Leon,Street,2215,Fenway,Large Project,Construction Complete,2004/04/02 00:00:00+00,2004/08/19 00:00:00+00,,,2004/08/05 00:00:00+00,135000,"135K dormitory and classroom facility, new John D. O'Bryant African American Institute, and acquisition of 10 Coventry Street.",,42.3372,-71.0916,135000,0,
773799.798130468,2943864.4714524,21464,1048,South Bay Expansion Project,1100,Massachusetts,Avenue,,Dorchester,Large Project,Construction Complete,2004/02/02 00:00:00+00,2004/06/24 00:00:00+00,,,,106937,"Redevelopment of the former AGAR Beef Supply Site into a Super Stop+Shop Supermarket, gas only service station, retail bank/food center.",,42.3253,-71.065,175000,0,
775013.062436223,2960306.40116689,21465,105,Tudor Wharf Hotel,34-44,Charles River,Avenue,2129,Charlestown,Large Project,Construction Complete,,2000/12/21 00:00:00+00,,,,119768,Extended stay hotel with 168 suites and 54 parking spaces.,,42.3704,-71.0602,119768,,
762169.204265714,2938487.48647147,21466,1050,131 Green Street,131,Green,Street,2130,Jamaica Plain,Small Project,Construction Complete,2004/04/16 00:00:00+00,2004/12/02 00:00:00+00,,,,22270,Proposal resulted in the construction of 21 units and 27 parking spaces.,,42.3107,-71.1081,22270,0,
761080.676259056,2945880.3374994,21467,1052,41-45 South Huntington Avenue,41-45,South Huntington,Avenue,,Mission Hill,Small Project,Construction Complete,2004/04/06 00:00:00+00,2004/05/13 00:00:00+00,,,,16474,Proposal calls for the construction of 17 residential units and 18 parking spaces.,,42.331,-71.112,16474,0,
749395.046087056,2920174.8121389,21468,1053,Cheriton Heights Senior Housing,20,Cheriton,Road,2132,West Roxbury,NPC,Construction Complete,2005/07/18 00:00:00+00,2009/05/14 00:00:00+00,2011/12/27 00:00:00+00,2013/06/07 00:00:00+00,,78000,"Project includes the development of a six (6) story, seventy (70) unit affordable elderly housing complex with fifty-nine (59) off-street parking spaces.",,42.2606,-71.1556,73580,0,
764059.377322644,2950740.95212197,21469,1054,Fenway Mixed-Use PDA Amendment (AKA Fenway Triangle),1365,Boylston,Street,2215,Fenway,Large Project,Construction Complete,,2004/04/01 00:00:00+00,,,,651000,Proposed First  Amendment to PDA No. 56 to permit 170 units to be purchased and used by Harvard University for Graduate/Faculty housing. Related filing by Harvard for IMP Amendment under 80D.,,42.3443,-71.1009,651000,0,
762447.928445801,2942570.32541864,21470,1055,Wyman Street Residences,11,Wyman,Street,2130,Jamaica Plain,Small Project,Construction Complete,2004/02/12 00:00:00+00,2004/08/19 00:00:00+00,,,,31000,Redevelopment of former Language & Cognitive Development Center into 22 unit condos with 33 parking spaces and  three affordable units to be located in newly constructed 3 3-decker buildings on Forbes Street.,,42.3219,-71.107,32772,0,
763563.661122471,2941081.35037823,21471,1058,Marbury Terrace,18,Marbury,Terrace,,Jamaica Plain,Small Project,Prefile (Default),,,,,,24000,"Development of former warehouse site into 29 units of housing, which will include affordable artist space lofts.",,42.3178,-71.1029,24000,0,
771549.675334141,2944982.82682723,21472,1059,Allied Waste Systems Transfer Station,51,Kemble,Street,,Roxbury,Small Project,Construction Complete,,,,,,40000,"Expansion of the existing waste transfer station in Roxbury into a state of the art facility. The proposed project is under 20,000 GSF, and thus will only require design review board of appeals approval.  The project was presented to the community.",,42.3284,-71.0733,40000,0,
771480.834592551,2947934.33864072,21473,106,57 East Concord Street,,Harrison,Avenue,,South End,Small Project,Construction Complete,,,,,,0,"Conversion of a 4 story building into 9 market rate residential units with an average floor area of 1,200 sq. ft. each.  Development with 9 basement parking spaces.",,42.3365,-71.0735,0,,
770861.338456228,2947457.49445006,21474,1060,687-697 Massachusetts Avenue,691,Massachusetts,Avenue,2118,Roxbury,Small Project,Construction Complete,2004/04/05 00:00:00+00,2009/11/17 00:00:00+00,2010/04/16 00:00:00+00,2012/03/30 00:00:00+00,,37049,"Construct 3 connected residential row houses with 30 condo units, 12 surface parking spaces & 6 SRO at 38-42 Upton St.",,42.3352,-71.0758,36954,0,
769471.655868143,2938631.52128839,21475,1065,Nu Life Development,71-79,Brunswick,Street,,Dorchester,Small Project,Construction Complete,2004/04/05 00:00:00+00,2004/05/13 00:00:00+00,,,2004/05/13 00:00:00+00,24112,Proposal calls for the construction of 10 townhouses along Brunwick St and 6 residential condominiums above a ground floor retail space with 16 parking spaces.,http://www.bostonplans.org/projects/development-projects/nu-life-development,42.311,-71.0811,24712,0,
758332.4563618,2931436.80831565,21476,1067,4040 Washington Street,4040,Washington,Street,2131,Roslindale,Small Project,Construction Complete,2004/03/23 00:00:00+00,2004/04/27 00:00:00+00,,,,37226,28 two-bedroom units in 5 buildings w/ 52 parking spaces,,42.2914,-71.1224,45556,0,
769312.327118561,2949053.32098281,21477,1068,263-265 Northampton St.,19,Father Francis Gilday,Street,2118,Roxbury,Small Project,Construction Complete,2006/11/16 00:00:00+00,2010/08/17 00:00:00+00,2010/11/16 00:00:00+00,,,16000,"Project includes a 35,832 square feet, six-story plus penthouse building with 37 condominium units, of which 7 are affordable artist live-work units.",,42.3396,-71.0815,45739,0,
746469.989601225,2955111.36103205,21478,1070,Residence at Bigelow Court,142,Bigelow,Street,,Brighton,Small Project,Construction Complete,2004/04/28 00:00:00+00,2004/06/24 00:00:00+00,,,,44103,Development of  a multi unit residential development consisting of 26 units and 54 parking spaces.,,42.3565,-71.1659,44103,0,
772140.388391554,2924286.49321997,21479,1071,Rivers Edge Condominium Project,40,River,Street,2126,Mattapan,NPC,Construction Complete,2004/06/18 00:00:00+00,2008/06/24 00:00:00+00,2006/11/02 00:00:00+00,2008/02/21 00:00:00+00,,66000,Project includes the construction of sixty-two (62) rental units.,,42.2716,-71.0715,88000,0,
768200.013726383,2944273.90370439,21480,1072,34-36 St. James Street in Roxbury,36-40,St. James,Street,2119,Roxbury,Small Project,Construction Complete,,,,,,7000,"Project consists of approximately 10,442 SF which will be sub-divided into two equal parcels for the construction of 4 market rate housing units. Redevelopment of this site requires BRA approval because it was previously owned by the BRA.",,42.3265,-71.0857,7000,0,
773860.344269216,2953194.11880356,21481,1078,Parcel P-7a,240,Tremont,Street,2116,Downtown,Large Project,Construction Complete,2006/11/14 00:00:00+00,2015/07/16 00:00:00+00,2017/01/09 00:00:00+00,2019/09/19 00:00:00+00,,125000,"Proposal calls for the construction of a 23-story, 125,000sf, 346 room micro hotel and the installation of a three-story digital/fixed advertising signage.",http://www.bostonplans.org/Projects/Development-Projects/Parcel-P-7a,42.3509,-71.0646,125000,0,
774082.741462216,2951992.6422039,21482,1079,Boston Chinese Evangelical Church Parcel A,0,Washington,Street,2111,South Boston Waterfront,Large Project,Construction Complete,,2008/11/13 00:00:00+00,,,2015/03/12 00:00:00+00,81600,"A new construction of a 4- story church structure on an approximately 12,193 square foot land, located at the corner of Washington Street and Marginal Road in the South Cove Urban Renewal Area.",,42.3476,-71.0638,0,0,
768100.494568467,2948063.45452423,21483,108,10 Coventry Street Rental Housing (NU Dorm),10,Coventry,Street,2119,Roxbury,Small Project,Construction Complete,,,,,,48000,Development includes a 63 rental unit project.,,42.3369,-71.086,48000,,
766603.004125133,2944594.18521605,21484,1081,Highland Park Phase II,,Dorr & Lambert,,,Roxbury,Small Project,Construction Complete,,,,,,15665,"Constructing 7 new residential buildings with 10 units for sale and one rental unit, also 11 parking spaces",,42.3274,-71.0916,15665,0,
760793.656163812,2943583.15311739,21485,1082,Mt. Pleasant Home,301,South Huntington,Avenue,2130,Jamaica Plain,Small Project,Construction Complete,2006/06/15 00:00:00+00,2006/07/20 00:00:00+00,2006/03/31 00:00:00+00,2012/07/31 00:00:00+00,,37460,"Mount Pleasant Homes expanded their present facility and increased their elderly bed count by 16 beds, bringing the number of assisted residents from 44 to 60.",,42.3247,-71.1131,36000,0,
770077.967647642,2947307.84087798,21486,1083,East Lenox St. & Washington St.,1876-1886,Washington,Street,2118,South End,Small Project,Construction Complete,2004/09/20 00:00:00+00,2004/12/04 00:00:00+00,,,,14500,"Caritas Communities to construct a four-story building with 25 affordable SRO units + one management residential unit,  retail space, common room, a laundry room, small property manage office  and 2 surface parking spaces.",,42.3348,-71.0787,14500,0,
771129.497696802,2953326.11197789,21487,1085,501 Boylston Street,501,Boylston,Street,,Back Bay,Large Project,Construction Complete,2004/07/15 00:00:00+00,2004/09/30 00:00:00+00,,,,90285,"Conversion of basement, ground floor and second floor from office to retail. 30 additional parking spaces in sub-basement.",,42.3513,-71.0747,97495,0,
768357.121351808,2945331.50296715,21488,1086,10 Roxbury Street,10,Roxbury,Street,2119,Roxbury,Small Project,Construction Complete,,,,,2019/11/09 00:00:00+00,5000,"Per ARHAR, project has 11 units including 2 affordables.

[As of June 2017, following description is incorrect & project status has been updated from Inactive to Construction Complete:]

4 units of artist mixed-use with ground floor retail in a vacant parcel right in Dudley Square.  Artist Mixed-Use requirements will apply.",,42.3294,-71.0851,5000,0,
775669.335401893,2953604.29514857,21489,1087,Lincoln Plaza,2-Jan,Lincoln,Street,2111,Leather District,Large Project,Construction Complete,2004/05/01 00:00:00+00,2004/06/24 00:00:00+00,,,,227000,"Rehab of One and Two Lincoln Plaza.  Retain 119,000 SF Office and convert remaining SF to 87 cond units (11 affordable).",,42.352,-71.0579,227000,0,
777515.64502947,2941770.04814781,21490,109,Harborpoint Marketplace - Phase I,25,Morrissey,Blvd,2125,Dorchester,Large Project,Construction Complete,,1999/11/10 00:00:00+00,,,,110600,Proposed development of retail complex with 509 parking spaces. Phase I has been completed and Phase II has completed site clearance.,,42.3195,-71.0513,160000,,
772452.623659477,2937516.63637906,21491,1090,Bowdoin Geneva III Housing Initiative,28,Richfield,Street,,Dorchester,Small Project,Construction Complete,,2004/12/02 00:00:00+00,,,,35000,"Project inludes 35,000sf residential development in conjuction with Bowdoin Geneva III Housing Initiative.",,42.3079,-71.0701,35000,0,
760406.959430635,2939390.51747382,21492,1091,655 Centre Street (Post Office),655,Centre,Street,,Jamaica Plain,Small Project,Construction Complete,2004/07/28 00:00:00+00,2004/09/30 00:00:00+00,,,,24200,proposes to demolish the existing one story building and construct a two story building for an expanded and modernized Post Office facility,,42.3132,-71.1146,24260,0,
777576.364396214,2961048.62113914,21493,1092,Pier 5 - Charlestown Navy Yard,2,Eighth,Street,2129,Charlestown,Large Project,Board Approved,2004/05/17 00:00:00+00,2006/07/20 00:00:00+00,,,2006/07/20 00:00:00+00,155500,"Developer is proposing 85 residential units on floors 2-5 and 10,000 square feet of Special Public Destination Facilities on the ground floor.  Project will include landscaping and improvements to Harborwalk around Pier 5.",,42.3724,-71.0507,155500,0,
772298.001593381,2946735.83021098,21494,1093,23 Bradston Street,23,Bradston,Street,,Dorchester,Small Project,Construction Complete,2004/07/30 00:00:00+00,2004/08/19 00:00:00+00,,,,65059,"The Property will be redeveloped into a small supermarket on the ground floor specializing in Asian American goods, a 400 seat restaurant on the second floor, and office areas on the third floor, and a garage structure accommodating up to 95 vehicles",,42.3332,-71.0705,17653,0,
769312.505923972,2949016.87912656,21495,1094,255 Northampton Street,255,Northampton,Street,2118,South End,Small Project,Construction Complete,2004/08/04 00:00:00+00,2004/09/07 00:00:00+00,,,,32500,Providing 25 residential loft-style condominium units of which two units will be affordable artist live-work units in a six story building and 18 parking spaces.,,42.3395,-71.0815,26956,0,
758990.576764718,2929471.84997523,21496,1098,Paradigm at Blakemore Project,,MBTA site at the corner of Florence/ Blakemore st.,,2131,Roslindale,Small Project,Construction Complete,2004/09/03 00:00:00+00,,,,,22000,Proposal includes 14 residential units.,,42.286,-71.12,22000,0,
767054.761751801,2929363.41646506,21497,1100,Woodrow Condominiums,250-258,Woodrow,Avenue,,Mattapan,Small Project,Construction Complete,2004/09/22 00:00:00+00,2005/02/03 00:00:00+00,,,,44724,A proposal to redevelop the existing self storage building and construct 23 residential units with 33 underground parking spaces.,,42.2856,-71.0902,44724,0,
771131.749004632,2936598.95547165,21498,1101,Beechwood Townhouses,22,Beechwood,Street,2121,Dorchester,Small Project,Construction Complete,2004/09/23 00:00:00+00,2000/11/02 00:00:00+00,,,,42420,"Proposal includes approximately 27,914 residential development with 26 parking spaces.",,42.3054,-71.075,27914,0,
779454.029604137,2948485.78340398,21499,1102,3 Dorchester Street - Phase II,3,Dorchester,Street,2127,South Boston,Small Project,Construction Complete,,2004/09/30 00:00:00+00,,,,34320,Project calls for the construction of twenty-two 3-bedrrom units.,,42.3379,-71.044,34320,0,
779846.379869297,2961024.24717215,21500,1105,80 Border Street - Atlantic Works,80,Border,Street,,East Boston,Small Project,Construction Complete,2004/10/29 00:00:00+00,2004/12/14 00:00:00+00,,,,28000,"Plans to renovate a four story building to house a day care facility, offices, and artist studio space with 17 parking spaces located at 80 Border Street in East Boston.",,42.3723,-71.0423,28000,0,
775396.589228228,2927910.86622056,21501,1106,429 Gallivan Blvd (Courtyard at Cedar Grove),429,Gallivan,Blvd,2124,Dorchester,Small Project,Construction Complete,2004/11/10 00:00:00+00,2005/01/20 00:00:00+00,,,,28280,"This project includes the development of 9 two-family structures, with 18 new units in total. All units will have 3 bedrooms. There are 36 on-site parking spaces included in the proposal, 30 of which are tandem spaces.",,42.2815,-71.0594,28280,0,
770565.370872304,2947164.48289698,21502,1107,Congregacion Leon de Juda Sanctuary,18-24,Reed,Street,,South End,Small Project,Construction Complete,2004/10/26 00:00:00+00,2004/12/04 00:00:00+00,,,,29000,"A proposal to construct a four story building to house a sanctuary, classrooms and offices with 17 enclosed parking spaces.",,42.3344,-71.0769,31323,0,
771729.463360384,2946878.74527948,21503,1108,Mallory Building,774,Albany,Street,2218,South End,Large Project,Prefile (Default),,,,,,69938,Rehabilitation of the Mallory Building into office and programming space for the Committee on Health for the Homeless.,,42.3336,-71.0726,69938,0,
772592.992801309,2931139.92111415,21504,1109,Latin Girls Academy Apartments,380,Talbot,Avenue,2124,Dorchester,Small Project,Construction Complete,,2006/07/20 00:00:00+00,2006/09/08 00:00:00+00,2008/05/01 00:00:00+00,,93000,Adaptive Re-Use of Gymnasium / Auditorium Building located at the former Latin Academy for Girls to create 36 units of mixed-income affordable housing.,,42.2904,-71.0697,40000,0,
778406.561226636,2942066.29296215,21505,111,Bayside Hotel,240,Mt Vernon,Street,,Dorchester,Large Project,Construction Complete,,1997/04/17 00:00:00+00,,,,99000,Proposed development of a new 200 room hotel to be located by the Bayside Exposition Center,,42.3203,-71.048,70000,,
774146.589431643,2928924.82810339,21506,1110,Ashmont Station TOD Development,1950,Dorchester,Avenue,2124,Dorchester,NPC,Construction Complete,2004/12/06 00:00:00+00,2005/11/14 00:00:00+00,,2010/08/30 00:00:00+00,,190000,"Redevelopment of the Ashmont T Station includes 111 units of mixed-income housing and approximately 30,000SF of retail space.",,42.2843,-71.064,190000,0,
771271.995115221,2946439.1454369,21507,1112,Crosstown Center Phase II,783,Massachusetts,Avenue,2118,Roxbury,Large Project,Construction Complete,,2001/09/13 00:00:00+00,,,,200000,"Crosstown Phase II consists of 25,000 GSF or retail and commercial space.",,42.3324,-71.0743,200000,0,
772240.174281225,2942107.32536039,21508,1114,Dudley Village,570,Dudley,Street,2125,Dorchester,Large Project,Construction Complete,2005/02/16 00:00:00+00,2005/04/28 00:00:00+00,,,,75590,"A mixed use residential development with approximately 50 residential units in three 4 story bldgs, 6,500 sq. ft. of commercial space with 59 parking spaces.",,42.3205,-71.0708,75590,0,
777014.450493798,2949675.48148389,21509,1115,125 B Street,125,B,Street,2127,South Boston,Small Project,Construction Complete,2004/12/03 00:00:00+00,2005/02/24 00:00:00+00,,,,22536,The project consisted of conversion of an existing office building into 16 units of residential condominiums with 24 parking spaces.,,42.3412,-71.053,22536,0,
772525.901400059,2949798.16693406,21510,1117,Penny Savings,1361-1375,Washington,Street,2118,South End,Small Project,Construction Complete,2004/12/21 00:00:00+00,2005/03/24 00:00:00+00,,,,45950,"Renovation and addition to the former Penny Savings Bank building to provide 23 condominium units of which two units are affordable, retail space and 26 parking spaces",,42.3416,-71.0696,45950,0,
776193.129629895,2941252.93271223,21511,1118,950 Dorchester Avenue,946-952,Dorchester,Avenue,,Dorchester,Small Project,Construction Complete,2004/12/28 00:00:00+00,2005/02/24 00:00:00+00,,,,30219,Rehabilitate brick structure and change occupancy to mixed comercial use (carpenter shop) and 13 residential units,,42.3181,-71.0562,29169,0,
774340.736353055,2954399.18988423,21512,112,Opera House,539,Washington,Street,,Downtown,Large Project,Construction Complete,1999/04/22 00:00:00+00,2000/05/18 00:00:00+00,,,,89221,"Historic renovation and redevelopment of the Boston Opera House as a working theater with 2,500 seats.  Awaiting resolution of pending litigation.",,42.3542,-71.0628,106250,,
768594.399092466,2941032.43479364,21513,1120,30 Hazelwood,30,Hazelwood,Street,2121,Roxbury,Small Project,Construction Complete,,,,,,1900,"Proponent is requesting that the director authorize an amendment to his LDA. The proponent plans on constructing two single homes, one on BRA deed restricted land while the other is on non-restricted land that the proponent ownes outright.",,42.3176,-71.0843,1900,0,
765056.012140393,2951510.93384972,21514,1122,Fenway Park Improvements,4,Yawkey,Way,,Fenway,Small Project,Construction Complete,2005/01/21 00:00:00+00,2005/02/24 00:00:00+00,,,,0,"renovation of existing .406 Club, remove glass, create two tiers and add 210 seats",,42.3464,-71.0972,0,0,
776745.977277473,2954484.52960856,21515,1124,Purchase Street Residences,175,Purchase,Street,,Downtown,Small Project,Construction Complete,,2005/02/24 00:00:00+00,,,,13200,"18 units, 21 parking spaces, and affordable housing contribution.  As-of-right project",,42.3544,-71.0539,13200,0,
770137.232292891,2940784.90772964,21516,1125,Kasanof Bakery - 233 Blue Hill Ave,233,Blue Hill,Avenue,2119,Roxbury,Large Project,Construction Complete,2005/07/01 00:00:00+00,2015/08/13 00:00:00+00,2017/04/06 00:00:00+00,2018/10/03 00:00:00+00,,138856,"A four-story, 48 unit apartment building with approximately 3,500 sf of retail and 16 homeownership units, for a total of 71 residential units and 78 parking spaces.",http://www.bostonplans.org/Projects/Development-Projects/Kasanof-Bakery-233-Blue-Hill-Ave,42.3169,-71.0786,138856,0,
773597.22406055,2935846.08000889,21517,1127,Mattapan Heights III,249,River,Street,2126,Mattapan,Large Project,Construction Complete,2005/02/25 00:00:00+00,2006/01/26 00:00:00+00,2006/12/08 00:00:00+00,2008/03/10 00:00:00+00,,197458,Construction of 73 affordable rental ubnits at 60%AMI.,,42.3033,-71.0659,240000,0,
749844.286330298,2929542.24156673,21518,1128,West Roxbury Post Office,1834-1840,Centre,Street,2132,West Roxbury,Small Project,Construction Complete,2005/02/28 00:00:00+00,,,,,17896,Redevelopment of Big League Bowling Alley building to create new West Roxbury Post Office Facility including post office boxes and retail lobby. As of right project that did not need BRA approval.,,42.2863,-71.1538,17896,0,
778299.200220883,2957225.92504439,21519,113,Boston Yacht Haven Marina,,Commercial,Wharf,2110,Downtown,Small Project,Construction Complete,,,,,,19000,"Proposed development of a new yacht club. Unauthorized building constructed over watersheet to house electrical transformers.  
Yacht club building completed",,42.3619,-71.0481,19000,,
771913.636220381,2942506.55290839,21520,1132,Community Hope,2,East Cottage / 550 Dorchester,Avenue,2127,Roxbury,Small Project,Construction Complete,,,,,,11000,This is a Chapter 121A project. Project Hope has developed a 4-story community center aimed at providing services to the families and youth of Roxbury and Dorchester.,,42.3216,-71.072,11000,0,
750610.426202223,2947292.78743039,21521,1136,Applebees,381,Chestnut Hill,Avenue,2467,Brighton,Small Project,Construction Complete,2005/02/14 00:00:00+00,2005/03/24 00:00:00+00,,,,5244,Applebee's is underway with construction of their 899 square foot addition to the former Ground Round restaurant. The redeveloper will also rehab the exhisting building to accommodate the new Applebee's restaurant.,,42.335,-71.1507,5244,0,
774647.797746807,2952505.73796247,21522,1137,Tyler Street Parcel,87,Tyler,Street,2111,Chinatown,Small Project,Construction Complete,2005/04/15 00:00:00+00,2006/01/10 00:00:00+00,2006/07/27 00:00:00+00,2010/08/26 00:00:00+00,,33288,"Alteration of originally proposed project to a six story building of approximately 33,288 square feet to provide a day care, a function room, classrooms and offices. Building will provide permanent space for the Asian American Civic Association, Inc and the Kwong Kow Chinese School, Inc.",,42.349,-71.0617,33288,0,
763035.911849886,2920707.66606006,21523,1139,Neponset Field,36,Poydras,Street,2126,Hyde Park,NPC,Construction Complete,2005/08/15 00:00:00+00,2009/11/17 00:00:00+00,2010/02/25 00:00:00+00,2011/04/28 00:00:00+00,,161600,"Proposal calls for 99 residential units, comprised of 48 home-ownership units and fifty 50 elderly assisted rental-housing units. The elderly housing will be constructed as Phase I of the overall project.",,42.2619,-71.1052,95000,0,
776812.889873311,2962356.56176473,21524,114,Parcel 39A,45,First,Avenue,2129,Charlestown,Large Project,Construction Complete,,2014/02/13 00:00:00+00,2013/11/25 00:00:00+00,2015/04/15 00:00:00+00,,48000,Proposal calls for 54 residential units.,http://www.bostonplans.org/projects/development-projects/parcel-39a-(1),42.376,-71.0535,48000,,
777858.797558382,2953615.74755348,21525,1140,Boston Chidrens Museum Expansion & Renovation,308,Congress,Street,2210,South Boston Waterfront,Large Project,Construction Complete,,2005/06/09 00:00:00+00,,,,22300,"Project calls for a 22,300 square foot expansion and renovation of the existing Boston Children's Museum.",,42.352,-71.0498,22300,0,
776219.605626807,2941362.39804448,21526,1142,944 Dorchester Avenue,942-946,Dorchester,Avenue,2125,Dorchester,Large Project,Construction Complete,2005/10/18 00:00:00+00,2005/12/01 00:00:00+00,2014/01/17 00:00:00+00,,,70800,59 homeownership units w/ 61 parking spaces (18 below grade/43 surface),,42.3184,-71.0561,70800,0,
778023.025576383,2948113.75002731,21527,1143,376 West Fourth Street,376,West Fourth,Street,2127,South Boston,Small Project,Construction Complete,2005/04/14 00:00:00+00,2005/05/19 00:00:00+00,,2006/07/01 00:00:00+00,,13870,"18 units of affordable apartments for the elderly. ARHAR never recorded; appears to have been replaced by DND restriction at book 39796, page 201.",,42.3369,-71.0493,13870,0,
758987.734578803,2917956.13219306,21528,1146,81-87 Fairmount Ave,81,Fairmount,Ave,2136,Hyde Park,Small Project,Construction Complete,,,,,,10000,"This project does not meet the threshold for Small Project Review, but the Developer did give one unit of affordable housing.  The BRA Board voted to enter into an AHA on May 19, 2005.",,42.2544,-71.1202,10000,0,
774944.763360217,2957827.92712122,21529,1147,121-127 Portland Street,121-127,Portland,Street,2114,West End,Large Project,Construction Complete,2005/10/14 00:00:00+00,2013/11/14 00:00:00+00,2015/09/29 00:00:00+00,2017/08/31 00:00:00+00,,109033,"The project consists of an approximately mixed-use building with 80 residential units, approx. 3,720 square feet of retail space, and 32 off-street parking spaces.",http://www.bostonplans.org/Projects/Development-Projects/121-127-Portland-Street-(The-Forecaster-Bldg),42.3636,-71.0605,109033,0,
776282.227220714,2950108.96913397,21530,1148,The Residences at 50 West Broadway,50-72,West Broadway,Broadway,2127,South Boston,NPC,Construction Complete,2005/04/12 00:00:00+00,2007/10/23 00:00:00+00,2008/04/03 00:00:00+00,2009/11/18 00:00:00+00,,46558,"A proposal for a mixed-use residential development with approximately one hundred thirty-nine (139) residential units, approximately 3,546 square feet of commercial space, and structured parking for approximately 152  parking spaces.",,42.3424,-71.0557,148904,0,
766146.394802138,2926917.43972972,21531,1149,1317 Blue Hill Avenue,1317,Blue Hill,Avenue,2126,Mattapan,Small Project,Construction Complete,,2003/10/07 00:00:00+00,,,2005/08/16 00:00:00+00,17500,Proposal resulted in the construction of 13 units of residential housing.,,42.2789,-71.0936,17500,0,
750817.648884892,2929728.42360906,21532,1150,450 Belgrade Avenue,450,Belgrade,Avenue,2132,West Roxbury,Small Project,Construction Complete,,,,,,45700,"39 residential units (3) studios, (14) one-bedroons, (20) two-bedrooms and (2) three-bedrooms.  58 parking spaces associated located internally to the building.",,42.2868,-71.1502,45700,0,
773520.135960132,2924402.79285614,21533,1151,Baker Chocolate Factory Phase 2,1241-1245,Adams,Street,2124,Dorchester,Large Project,Construction Complete,,2001/01/25 00:00:00+00,,,,79000,Phase II consists of the rehabilitation and conversion of the Baker Mill building at 1251 Adams Street into 61 residential condominiums and the construction of 3 townhouse-style structues for the provision of 18 condominium units.,,42.2719,-71.0664,79000,0,
751249.997757718,2956114.53323831,21534,1152,83 Leo M Birmingham Parkway,83,Leo M. Birmingham,Parkway,2135,Brighton,Small Project,Construction Complete,2005/05/09 00:00:00+00,2005/07/12 00:00:00+00,,,,11085,"The Redeveloper will construct an addition to the existing building bringing the building square footage from approximately 33,323 square feet to approximately 44,408 square feet.",,42.3592,-71.1482,11000,0,
764648.512299225,2946188.38412739,21535,1153,1486 Tremont Street,1486,Tremont,Street,2120,Mission Hill,Large Project,Construction Complete,2006/04/24 00:00:00+00,2013/09/12 00:00:00+00,2014/06/17 00:00:00+00,2016/04/28 00:00:00+00,,75000,"Proposal calls for a 66 unit rental project with 6,000 sf of ground floor retail space The project will also includes 60 parking spaces.",http://www.bostonplans.org/Projects/Development-Projects/1486-Tremont-Street,42.3318,-71.0988,75348,0,
756694.60235405,2959563.25599964,21536,116,Raquet Facility,,N. Harvard,Street,2134,Allston,Large Project,Construction Complete,,,,,,87000,Proposed development of a new raquet / sports facility on the Allston campus. The proposed project is to be funded by the School of Arts and Sciences. PROJECT COMPLETED. DELETE FROM PIPELINE.,,42.3686,-71.128,87000,,
749843.153130472,2949804.19448106,21537,1163,150 Chestnut Hill Ave,150,Chestnut Hill,Avenue,2135,Brighton,Small Project,Construction Complete,,2006/06/29 00:00:00+00,2008/12/04 00:00:00+00,2011/06/03 00:00:00+00,2006/02/10 00:00:00+00,27784,"150 Chestnut Hill Avenue 21 residential units proposed producing 18 market rate units and 3 affordable units all 2 bedroom condos avg. sizes from 1,100sf to 1,200sf with 33 off-street parking spaces located underneath the building & below the rear garden",,42.3419,-71.1535,26538,0,
761274.104021803,2944970.15395232,21538,1166,125 South Huntington,125,South Huntington,Street,,Jamaica Plain,Small Project,Construction Complete,2005/11/29 00:00:00+00,2006/03/09 00:00:00+00,2007/04/13 00:00:00+00,,,46693,"The American Cancer Society constructed ""Hope Lodge,"" providing temporary lodging to ambulatory patients from outside Boston who are undergoing outpatient cancer treatment at area hospitals.  The project includes 40 units and 33 parking spaces.",,42.3285,-71.1113,46693,0,
776114.155378386,2930429.10560665,21539,1167,Blandino Farms,615,Adams,Street,2122,Dorchester,Small Project,Construction Complete,2006/03/26 00:00:00+00,2007/10/23 00:00:00+00,,,,16000,Proposed project includes 16 units of housing with 32 parking spaces.,,42.2884,-71.0567,16000,0,
778921.163871974,2931755.79160155,21540,1169,Great Space Self-Storage,41,Norwood,Street,2122,Dorchester,Large Project,Construction Complete,2006/05/18 00:00:00+00,2006/06/29 00:00:00+00,,,,99981,Self-Storage consisting of 831 units,,42.292,-71.0463,99981,0,
778239.731179714,2953144.00407439,21541,1170,346-354 Congress Street/FP3,348-354,Congress,Street,2210,South Boston Waterfront,NPC,Construction Complete,2005/12/19 00:00:00+00,2007/11/15 00:00:00+00,2007/01/24 00:00:00+00,2008/08/22 00:00:00+00,,145000,"Rehabilitation of 2 existing buildings and infill of adjacent surface lot for the provision of 92 condominium units, including 4 artist live/work units, and ground floor restaurant space.",,42.3507,-71.0484,145000,0,
767583.753804058,2937492.61050847,21542,1171,122 Elm Hill Avenue Apartments,122,Elm,Avenue,2121,Roxbury,Small Project,Construction Complete,2005/08/29 00:00:00+00,2005/10/20 00:00:00+00,2007/03/08 00:00:00+00,2008/09/16 00:00:00+00,,38000,"Proposal resulted in the conversion of an approximately 38,000 square foot existing three story building into 18 residential units with 18 parking spaces.",,42.3079,-71.0881,38000,0,
774340.736353055,2954399.18988423,21543,1172,Emerson College - Paramount Center,549-563,Washington,Street,2111,Downtown,Large Project,Construction Complete,2006/05/25 00:00:00+00,2006/06/29 00:00:00+00,,,,145000,"The return of the paramount theatre, a restaurant, blax box theatre, film screening room, class rooms, 262 student beds, total height is 108 feet, rehersal rooms and offices are associated with the proposal.",,42.3542,-71.0628,145000,0,
764203.765157223,2948773.72311682,21544,1173,Simmons College - School of Management and Quad Project,300,The,Fenway,2115,Longwood Medical Area,Large Project,Construction Complete,,2006/01/26 00:00:00+00,2006/06/12 00:00:00+00,2009/02/03 00:00:00+00,2006/01/26 00:00:00+00,66500,"The Proposed Project contenplates erecting a 66,000sf new School of Management building with 715 below grade parking spaces, creating a green quad, located at the southern end of the Simmons Campus.",http://www.bostonplans.org/projects/development-projects/simmons-college-school-of-management-and-quad-pr,42.3389,-71.1004,70000,0,
755159.630030304,2952012.9630294,21545,1174,9-23 Griggs Street,9 -- 23,Griggs,Street,2134,Allston,NPC,Construction Complete,,2010/12/14 00:00:00+00,2011/06/24 00:00:00+00,2014/04/01 00:00:00+00,,134981,NPC Submitted on 5/16/08 calling for 96 units and 101 parking spaces,,42.3479,-71.1338,134981,0,
777336.764153644,2950078.04367089,21546,1176,154 West Second Street (The Signal Building),154,West Second,Street,2127,South Boston,NPC,Construction Complete,2006/03/31 00:00:00+00,2010/07/20 00:00:00+00,2008/06/12 00:00:00+00,2011/02/16 00:00:00+00,,130000,mixed-use development of seventy-five (75) for-sale loft condominium units.  Twenty-four (24) of the proposed units will be artist live/work units and fifty-one (51) will be residential units.  101  garage spaces internal to the building,,42.3423,-71.0518,130000,0,
777810.32685481,2962799.12157515,21547,1177,Spaulding Rehabilitation Hospital,300,1st,Avenue,2129,Charlestown,Large Project,Construction Complete,2006/08/15 00:00:00+00,2009/07/16 00:00:00+00,2010/12/10 00:00:00+00,2013/02/11 00:00:00+00,2010/11/22 00:00:00+00,221100,New rehabiliation facility on Parcel 6 in Charlestown Navy Yard.,https://www.bostonplans.org/projects/development-projects/spaulding-rehabilitation-hospital,42.3772,-71.0498,240000,0,
747894.033669144,2950452.32540265,21548,1178,Boston College - St. Clement's Hall Renovation,210,Foster,Street,2135,Brighton,Large Project,Construction Complete,,,,,,0,Renovation and occupancy of north wing of St. Clement's Hall on new Brighton campus. Parcel ID# is 2205268020,,42.3437,-71.1607,0,0,
767867.958288133,2951415.05608873,21549,1181,Berklee College of Music - 160 Massachusetts Avenue,160,Massachusetts,Avenue,2115,Back Bay,Large Project,Construction Complete,,2011/05/12 00:00:00+00,,,2012/05/28 00:00:00+00,155000,"Berklee's IMPNF describes the new Crossroads project which contains performance space, residences, and student life space: the 161-171 Mass Ave. project which contains academic space; a Music Technology Facility; and other on-going campus developments",http://www.bostonplans.org/projects/development-projects/berklee-college-of-music-160-massachusetts-avenue,42.3461,-71.0868,170000,0,
774600.733864561,2956404.88272323,21550,1182,Suffolk University - 20 Somerset Street,20,Somerset,Street,,Downtown,Large Project,Construction Complete,2008/09/08 00:00:00+00,2013/02/14 00:00:00+00,2014/01/21 00:00:00+00,2015/08/07 00:00:00+00,2013/10/04 00:00:00+00,112000,"Suffolk proposes the removal of the existing building at the 20 Somerset Street site and the construction of a new academic building not to exceed 156,000SF. This project is undergoing Large Project Review and was listed in the approved IMP.",http://www.bostonplans.org/projects/development-projects/suffolk-university-20-somerset-street,42.3597,-71.0618,112000,0,
774996.184189141,2958338.39329189,21551,1189,Avenir Parcel 1A (by Trinity),89-119,Canal,Street,2114,West End,NPC,Construction Complete,2005/11/10 00:00:00+00,2007/04/24 00:00:00+00,2007/07/02 00:00:00+00,2009/10/16 00:00:00+00,,200000,"241 residential units, 35,000sf of retail and parking for 121 cars",,42.365,-71.0603,275639,0,
773413.790044218,2950640.84766339,21552,1192,Washington and E. Berkeley St.,1143,Washington St. 83 E. Berkeley St.,,,South End,Small Project,Construction Complete,2005/01/20 00:00:00+00,2005/04/07 00:00:00+00,,,,21408,"A new six-story building with commercial/retail, office and 14 affordable single room occupancy units",,42.3439,-71.0663,21408,0,
745085.197423309,2928685.24721773,21553,1193,1100 VFW Parkway (Gordon's Wood),1100,V.F.W.,Parkway,2132,West Roxbury,NPC,Construction Complete,2006/01/16 00:00:00+00,2009/09/15 00:00:00+00,2009/12/24 00:00:00+00,2012/08/06 00:00:00+00,2022/01/21 00:00:00+00,50103,"Forty-two (42) residential units, eighty-four (84) parking spaces, and related site improvements, located at 970-1100 V.F.W. Parkway in West Roxbury.",,42.284,-71.1714,61395,0,
771326.174796894,2951832.93878314,21554,1195,285 Columbus Ave,285,Columbus,Avenue,2116,South End,Large Project,Construction Complete,2006/03/06 00:00:00+00,2006/04/25 00:00:00+00,2007/04/10 00:00:00+00,2008/05/09 00:00:00+00,,96200,"Renovation of an existing eight-story, approximately 96,200 square foot building, to include 63 residential condominium 
units, and approximately 9,000 square feet of street-level retail/restaurant space on Columbus Avenue.",,42.3472,-71.074,92600,0,
755915.196432561,2914772.2064743,21555,1199,1 Westinghouse Plaza,1,Westinghouse,Plaza,2136,Hyde Park,Large Project,Construction Complete,2006/12/29 00:00:00+00,2007/03/29 00:00:00+00,2014/04/11 00:00:00+00,2014/08/25 00:00:00+00,,95000,"Project includes120,000 sf of total development, with 66 residential and artist live/work units.",,42.2457,-71.1316,120000,0,
772476.7942148,2948813.96516231,21556,120,New Area D-4 Police Station,7,Warren,Avenue,,South End,Small Project,Construction Complete,,,,,,0,Proposed development of a new 2 story Police Station in South End District 4. Proposed new facility will include 83 parking spaces.,,42.3389,-71.0698,0,,
767036.903519809,2933080.44643256,21557,1200,Franklin Hill Phase I,1,Shandon,Road,,Dorchester,Large Project,Construction Complete,,2006/04/06 00:00:00+00,2008/05/20 00:00:00+00,2009/11/02 00:00:00+00,,180000,The project involves the demolition of the existing 366 units of public housing and construction of 350 units of new affordable rental and for-sale housing units.,,42.2958,-71.0902,127215,0,
771341.281065881,2948808.26602672,21558,1201,35-36 West Newton Street,35-36,West Newton,Street,,South End,Small Project,Construction Complete,,2006/11/16 00:00:00+00,2013/06/07 00:00:00+00,2013/12/13 00:00:00+00,,27000,"The  building façade will be restored and repaired, and the interior space will be improved for commercial/retail, 27 affordable Single Room Occupancy units, office space & a manager apartment,",,42.3389,-71.074,27000,0,
769890.127472132,2936046.16556673,21559,1202,157 Washington Street,157,Washington,Street,,Dorchester,Small Project,Construction Complete,2007/07/13 00:00:00+00,2008/06/24 00:00:00+00,2011/02/18 00:00:00+00,2013/05/21 00:00:00+00,,25427,The existing building will be demolished (while saving the historic façade) and replaced with a new 3 1/2 story mixed-use development which will include retail spaces facing a public plaza on Washington Street as well as 38 limited equity co-op units.,,42.3039,-71.0796,25427,0,
766491.528298214,2945286.0611289,21560,1205,17 Morley Street,17,Morley,Street,,Roxbury,Small Project,Construction Complete,,,,,,2872,"On 9/15/80, the BRA coveyed Parcel 5 (existing brick--structured townhouse) to Treholm & Roma Turner for a redevlopment of 3-family residential. On 4/12/01, the BRA amended the LDA (dated 9/15/80) from 3-family to 2-family residential.",,42.3293,-71.092,2872,0,
775957.623867303,2950143.72365764,21561,1206,Eleven West Broadway,11,West Broadway,Street,2127,South Boston,Large Project,Construction Complete,2006/03/28 00:00:00+00,2010/11/16 00:00:00+00,2012/04/18 00:00:00+00,2013/09/18 00:00:00+00,,94644,"This project consists of 50 residential rental units and 8,000sf of ground floor retail.",http://www.bostonplans.org/Projects/Development-Projects/Eleven-West-Broadway,42.3425,-71.0569,94644,0,
763406.838273391,2951539.64770307,21562,1207,25 Miner Street,25,Miner,Street,2215,Fenway,NPC,Construction Complete,2006/05/05 00:00:00+00,2013/09/12 00:00:00+00,2014/01/31 00:00:00+00,2016/01/27 00:00:00+00,,47164,Proposal calls for 49 residential units.,http://www.bostonplans.org/Projects/Development-Projects/25-Miner-Street,42.3465,-71.1033,47164,0,
764042.292054966,2942832.82423748,21563,1208,Centre Lamartine,362-270 1/2,Centre,Street,2130,Jamaica Plain,Small Project,Construction Complete,2006/02/15 00:00:00+00,2006/04/25 00:00:00+00,2008/09/18 00:00:00+00,2011/05/31 00:00:00+00,2006/04/25 00:00:00+00,36300,"The proposal calls for a 4-story, 30 unit residential rental building, 6,300sf of retail space, 1,600sf of office/community meeting space, and 13 surface parking spaces",http://www.bostonplans.org/Projects/Development-Projects/Centre-Lamartine,42.3226,-71.1011,44470,0,
773727.958707228,2942041.97476931,21564,1209,12 Humphrey Street,12,Humphreys,Street,2125,Dorchester,Small Project,Construction Complete,2006/03/02 00:00:00+00,2006/04/25 00:00:00+00,2006/11/22 00:00:00+00,2008/06/11 00:00:00+00,,22141,Project involves the construciton of 18 units of affordable housing plus 16 parking spaces on-site.,,42.3203,-71.0653,18000,0,
774558.469185308,2954108.76428397,21565,121,Hayward Place,580,Washington,Street,,Downtown,Large Project,Construction Complete,2004/06/24 00:00:00+00,2011/03/10 00:00:00+00,2011/11/14 00:00:00+00,2013/10/01 00:00:00+00,,390705,"Proposal calls for the construction of a 14 story mixed use building with 188 residential units, approximately 19,000 sf of retail and up to 271 underground parking spaces.",http://www.bostonplans.org/projects/development-projects/hayward-place,42.3534,-71.062,390705,,
775279.478241965,2934870.75650023,21566,1210,1460 Dorchester Avenue,1460,Dorchester,Avenue,2122,Dorchester,Small Project,Construction Complete,2006/02/22 00:00:00+00,2006/07/20 00:00:00+00,2009/09/03 00:00:00+00,2010/01/07 00:00:00+00,,43922,Proposal resulted in the construction of 43 units of affordable housing.,,42.3006,-71.0597,43922,0,
779243.182912976,2952529.80976473,21567,1212,Congress Street Hotel,505,Congress,Street,2210,South Boston Waterfront,Large Project,Construction Complete,2006/08/01 00:00:00+00,2007/03/08 00:00:00+00,2012/08/08 00:00:00+00,2014/05/16 00:00:00+00,,532489,"Proposal for a 24 story hotel w/ 505 rooms and  on site parking for 150 cars and approximately 9,000 sq. ft. of ground floor retail space.",,42.349,-71.0447,532489,0,
771221.008012474,2945819.36583656,21568,1216,Hope House,8-Feb,Farnham,Street,2118,Roxbury,Small Project,Construction Complete,,2006/10/19 00:00:00+00,2008/02/08 00:00:00+00,2009/01/01 00:00:00+00,,14552,"Hope House, a theraputic community for men in recovery, is proposing to construct an 80 bed sober house and twenty two units of affordable residential single room occupancy on the corner of Hampden and Farnham Streets in the New Market Industrial area.",,42.3307,-71.0745,33735,0,
772620.07640855,2941854.14213973,21569,1218,Kroc Community Center,650 & 655,Dudley,Street,,Dorchester,Large Project,Construction Complete,2006/06/28 00:00:00+00,2006/08/10 00:00:00+00,2009/06/10 00:00:00+00,2011/05/24 00:00:00+00,,95000,"The Salvation Army is building a 95,000 sf community center in Dorchester. The center incorporates a swimming pool, chapel, theatre, and educational classrooms as well as 149 parking spaces.",,42.3198,-71.0694,95000,0,
777093.835505635,2950003.88272998,21570,1220,141 West Second Street,141,West 2nd,Street,2127,South Boston,Small Project,Construction Complete,2007/01/29 00:00:00+00,2007/07/19 00:00:00+00,2008/11/26 00:00:00+00,2010/08/30 00:00:00+00,,26802,Proposal involved the rehabilitation of the former Dirigo Spice building for the provision of 17 new residential units.,,42.3421,-71.0527,36936,0,
770506.340478554,2937251.81177747,21571,1221,Bethel Baptist Church,157,Stanwood,Street,2121,Dorchester,Small Project,Construction Complete,2006/06/15 00:00:00+00,2006/07/20 00:00:00+00,2006/07/25 00:00:00+00,,2006/07/20 00:00:00+00,24000,"Bethel Baptist Church Ministries proposes to demolish the existing garage on the site and to construct an approximately 23,436 gross square foot, 3-story place of worship and community center.",http://www.bostonplans.org/Projects/Development-Projects/Bethel-Baptist-Church,42.3072,-71.0773,38000,0,
770385.342689052,2934372.26044998,21572,1222,Norwell Whitfield Homes Phase II,52,Elmont,Street,,Dorchester,Small Project,Construction Complete,,,,,,43000,"Propject inlcludes 43,000 square feet of residential space on City-owned lots in the Four Corners area in Dorchester.",,42.2993,-71.0778,43000,0,
770398.683541641,2937141.9511048,21573,1223,Columbia Court,186,Columbia,Road,,Dorchester,Small Project,Prefile (Default),,,,,,40000,,,42.3069,-71.0777,40000,0,
768517.58658205,2945696.71024197,21574,1228,Central Boston Elder Services,2313,Washington,Street,,Roxbury,Small Project,Construction Complete,2006/05/17 00:00:00+00,2006/08/10 00:00:00+00,2010/08/17 00:00:00+00,2011/11/18 00:00:00+00,,49000,"Proposal calls for construction of a seven story brick building with 57 housing units for elders and 32 parking spaces, 9 of wich will be valet parking.  One unit is reserved for a live-in building manager.",,42.3304,-71.0845,49497,0,
756265.579918131,2952564.37793706,21575,1229,226 Harvard Avenue Retail/Office Building,226,Harvard,Avenue,2134,Allston,Small Project,Construction Complete,2006/11/21 00:00:00+00,2007/01/11 00:00:00+00,2007/10/15 00:00:00+00,2009/12/21 00:00:00+00,,30000,Remove gas station  and covert the premises into a 3-story retail and professional office building with on-site at grade parking (drygoods/clothing retail on first floor and first-class office space on the 2nd and 3rd floors. Urban Outfitiers,,42.3494,-71.1297,31000,0,
762122.236511886,2942823.92464897,21576,1230,Blessed Sacrament Campus Redevelopment,365,Centre,Street,2130,Jamaica Plain,Large Project,Construction Complete,2006/07/07 00:00:00+00,2013/07/16 00:00:00+00,2013/11/22 00:00:00+00,2014/08/27 00:00:00+00,,24665,"118 units of mixed-income housing, 150 parking spaces, 11,000sf of retail space, 2,000sf community space located in the front of the Church and a large green space core for the project and surrounding community.",http://www.bostonplans.org/Projects/Development-Projects/Blessed-Sacrament-Campus-Redevelopment,42.3226,-71.1082,74512,0,
779806.284477055,2948341.89819306,21577,1233,Distillery Project,516-524,East Second,Street,2127,South Boston,Large Project,Construction Complete,2007/05/29 00:00:00+00,2009/09/15 00:00:00+00,2013/05/30 00:00:00+00,2017/03/30 00:00:00+00,2009/09/15 00:00:00+00,179384,"Proposal calls for the development of 65 units, including a mix of artist live/work, loft-style and conventional units, 147 parking spaces, an art gallery, greenhouse, and small scale retail space; the existing Distillery building will be preserved.

Affordable units to be located at 455-457 East First Street as part of Phase II of overall project.",http://www.bostonplans.org/Projects/Development-Projects/Distillery-Project,42.3375,-71.0427,179384,0,
778241.660637811,2952779.58551189,21578,1239,316-322 Summer Street,316-322,Summer,Street,,South Boston Waterfront,Large Project,Construction Complete,2006/04/18 00:00:00+00,2008/12/04 00:00:00+00,2012/07/03 00:00:00+00,2013/07/18 00:00:00+00,,140100,Proposal calls for renovation of existing buildings and conversion to office uses.,http://www.bostonplans.org/projects/development-projects/316-322-summer-street,42.3497,-71.0484,140000,0,
778611.003403053,2954494.35931331,21579,124,Fan Pier Parcel J,25,Harbor Shore,Drive,2210,South Boston Waterfront,Large Project,Construction Complete,1999/11/15 00:00:00+00,2001/11/14 00:00:00+00,,,2007/12/20 00:00:00+00,66000,Fan Pier Parcel J houses the Institute of Contemporary Art completed in 2006.,http://www.bostonplans.org/projects/development-projects/fan-pier-parcel-j,42.3544,-71.047,66000,,
765972.562472641,2923636.81538548,21580,1240,Mattapan Community Health Center,1575,Blue Hill,Avenue,,Mattapan,Small Project,Construction Complete,2010/03/31 00:00:00+00,2010/05/18 00:00:00+00,2012/04/20 00:00:00+00,2012/07/11 00:00:00+00,,49500,"Construction of a new Mattapan Community Health Center facility, which will be located where the current facility is located.  New facility will provide an increase in the number of exam rooms and will provide adequate space to improve service to patient.",,42.2699,-71.0943,49500,0,
764609.991706967,2948629.85923131,21581,1241,Isabella Stewart Gardner Museum,280,The Fenway,Fenway,,Longwood Medical Area,Large Project,Construction Complete,2007/11/26 00:00:00+00,2008/04/01 00:00:00+00,2013/09/18 00:00:00+00,2013/10/03 00:00:00+00,,60000,"Construction of a new approximately 60,000 square foot facility, which will include an exhibition gallery, orientation space, education classrooms, a café, gift shop, greenhouse, offices, a conservation lab, storage areas and a concert hall.",,42.3385,-71.0989,60000,0,
771909.952172637,2948628.89958756,21582,1243,5-10 St. George Street,10-May,St. George,Street,2118,South End,Small Project,Construction Complete,2008/02/22 00:00:00+00,2008/08/12 00:00:00+00,2011/10/19 00:00:00+00,2015/03/11 00:00:00+00,2022/08/30 00:00:00+00,45000,The proposed project includes 33 residential units and approximately 22 underground parking spaces.,http://www.bostonplans.org/projects/development-projects/5-10-st-george-street,42.3384,-71.0719,44999,0,
777907.182960302,2949570.84881914,21583,1245,West Square,320,D,Street,2210,South Boston,Large Project,Construction Complete,2006/07/21 00:00:00+00,2011/12/16 00:00:00+00,2012/05/12 00:00:00+00,2014/04/11 00:00:00+00,,351341,Proposal calls for approximately 259 residential rental units and 143 parking spaces. Location is Block of C and D between W. First and West Second.,http://www.bostonplans.org/Projects/Development-Projects/West-Square,42.3409,-71.0497,351341,0,
769052.234462887,2952477.66387165,21584,1247,Apple Store,815,Boylston,Street,,Back Bay,Small Project,Construction Complete,2006/09/11 00:00:00+00,2006/10/19 00:00:00+00,2007/10/03 00:00:00+00,2010/09/13 00:00:00+00,,21350,"New Apple Computer Retail Store. 3 stories 21,350 SF",,42.349,-71.0824,21350,0,
771717.96371147,2954568.10982198,21585,1248,0 Marlborough St/6 Arlington,6,Arlington,Street,,Back Bay,Small Project,Construction Complete,2006/12/11 00:00:00+00,2007/01/25 00:00:00+00,2007/05/31 00:00:00+00,2009/02/13 00:00:00+00,2006/12/11 00:00:00+00,14480,Renovation and design review,,42.3547,-71.0725,33680,0,
775026.429535478,2952471.24393697,21586,1250,Parcel 24,0,Kneeland,Street,2111,Chinatown,Large Project,Construction Complete,2008/02/19 00:00:00+00,2011/02/10 00:00:00+00,2013/10/10 00:00:00+00,2015/11/24 00:00:00+00,2018/02/13 00:00:00+00,446900,"Proposal calls for a 312 unit mixed-income residential development located on a 58,000 square foot vacant site bounded by Hudson Street, Kneeland Street and Albany Street.",http://www.bostonplans.org/projects/development-projects/parcel-24,42.3489,-71.0603,396750,0,
746575.245952383,2955840.62761815,21587,1255,Brighton Boathouse,,Nonantum,Road,2135,Brighton,Small Project,Construction Complete,2006/10/12 00:00:00+00,2006/11/16 00:00:00+00,,,,33000,"Two buildings centered around a public court; a 2 story main boathouse and a smaller one-story pavilion building. Both mainly used to store rowing shells, with membership office and public bathrooms.",,42.3585,-71.1655,30300,0,
775130.744287476,2958448.41636582,21588,1256,One Canal (Bullfinch Parcel 2ABC),1,Canal,Street,2114,West End,Large Project,Construction Complete,2008/03/07 00:00:00+00,2012/08/12 00:00:00+00,2013/09/30 00:00:00+00,2016/05/05 00:00:00+00,2013/06/28 00:00:00+00,438800,"Proposal calls for 320 residential units, 21,300sf of retail and 159 parking spaces.",http://www.bostonplans.org/Projects/Development-Projects/One-Canal-(Bullfinch-Parcel-2ABC),42.3653,-71.0598,438800,0,
759109.287157223,2957423.78619723,21589,1258,Genzyme Phase II Expansion,1,Soldiers Field,Road,,Allston,Large Project,Construction Complete,,,,,,115000,"25,000 square foor cogeneration plant below grade, construction of approximately 90,000 square feet of usable expansion space, office and manufacturing support areas, including a cafeteria, and construction of 156 at-grade parking spaces",,42.3627,-71.1191,115000,0,
755745.840800136,2953983.39281556,21590,1259,9 Gardner Street,9,Gardner,Street,2134,Allston,Small Project,Construction Complete,2006/08/21 00:00:00+00,2006/10/19 00:00:00+00,2008/07/03 00:00:00+00,2009/01/01 00:00:00+00,,8320,"14 residential units, 1 commercial unit and 15 below-grade parking spaces .",,42.3533,-71.1316,23500,0,
765485.082476467,2952241.81887089,21591,126,Hotel Commonwealth,500-528,Commonwealth,Avenue,2215,Fenway,Large Project,Construction Complete,1999/01/27 00:00:00+00,1999/08/12 00:00:00+00,,,,178000,"Proposed development includes development of a 149 room hotel with first floor retail.  Potential linkage of $350,000 for housing and $70,000 for jobs.",,42.3484,-71.0956,165406,,
784158.76592955,2948438.52988955,21592,1260,902 East Second Street,902,E Second,Street,2127,South Boston,Small Project,Construction Complete,2012/01/17 00:00:00+00,2012/03/13 00:00:00+00,2014/01/22 00:00:00+00,2018/12/12 00:00:00+00,2012/03/13 00:00:00+00,39600,The revised proposal calls for 36 rental units and 54 parking spaces and will be constructed as-of-right. The previously approved scheme called for 45 units and 52 parking spaces.,http://www.bostonplans.org/Projects/Development-Projects/902-East-Second-Street,42.3377,-71.0266,39600,0,
775265.303073466,2958558.43976781,21593,1261,The Merano,0,"Causeway Street, Beverly Street, Valenti",Way,2114,West End,Large Project,Construction Complete,2008/06/27 00:00:00+00,2008/05/15 00:00:00+00,,,,488000,"Proposal calls for 230 rental units, a 210-key hotel and 184 parking spaces.",,42.3656,-71.0593,491700,0,
753521.689080477,2955796.02993831,21594,1262,156 Lincoln Street,156,Lincoln,Street,,Brighton,Large Project,Construction Complete,2006/05/12 00:00:00+00,2006/09/07 00:00:00+00,2007/04/27 00:00:00+00,2008/05/30 00:00:00+00,,115032,"115,032 square foot self-storage facility with 986 units and 10 parking spaces.  Subdivision of 8500sf  to allow for 4 residential units on the Antwert Street corner of the site.",,42.3583,-71.1398,115032,0,
751050.633655131,2919124.7391078,21595,1264,Ridgecrest Village Apartments,127,Edgemere,Road,,West Roxbury,Small Project,Construction Complete,2010/04/05 00:00:00+00,2010/07/20 00:00:00+00,2011/08/04 00:00:00+00,2012/07/27 00:00:00+00,,52000,Construction of 48 new rental units and 82 parking spaces within the existing Ridgecrest Green apartment complex.,,42.2577,-71.1495,45000,0,
775130.744287476,2958448.41636582,21596,1265,Simpson Parcel 1 AKA The Victor,110,Beverly,Street,2114,West End,Large Project,Construction Complete,2007/11/08 00:00:00+00,2007/12/20 00:00:00+00,2011/07/22 00:00:00+00,2013/10/29 00:00:00+00,2007/12/20 00:00:00+00,361000,"Proposal calls for 14,910sf of ground floor retail, a 142 space parking garage and 284 residential rental units.",http://www.bostonplans.org/Projects/Development-Projects/Simpson-Parcel-1-AKA-The-Victor,42.3653,-71.0598,361000,0,
777515.64502947,2941770.04814781,21597,1267,25 Morrissey Blvd. aka (HUB 25),25-35,Morrissey,Blvd.,2125,Dorchester,Large Project,Construction Complete,2012/11/16 00:00:00+00,2016/03/17 00:00:00+00,2015/01/22 00:00:00+00,2016/09/30 00:00:00+00,,220000,"Qianlong Criterion Ventures, LLC seeks to construct two, five-story residential buildings, with a total of 278 rental dwelling units, usable open space, and 143 accessory residential parking spaces.",http://www.bostonplans.org/Projects/Development-Projects/25-Morrissey-Blvd-aka-(HUB-25),42.3195,-71.0513,220000,0,
765241.622005388,2952277.10849848,21598,127,The Charlesview,534-538,Commonwealth,Avenue,2215,Fenway,Small Project,Construction Complete,,2001/08/02 00:00:00+00,,1900/01/01 00:00:00+00,,33524,"Proposed development includes the rehabilitation of the Charlesview and the creation of 27 market rate rental units, 1 elderly affordable rental unit, lone level of retail and 14 parking spaces.

Housing note: project description above does not correspond with housing compliance info or docs below. 

Units at 6-8 Gordon were created pursuant to LDA with same developer. Housing is unaware of any rental restriction on a unit at the Charlesview address, and building appears to have converted to condos around 2004. 

7/17/2001 board memo in housing's file states ""As a benefit to the City of Boston, Modern Continental agreed to create one (1) rental unit as an elderly affordable unit at the Charlesview Project. Accordingly, a two-bedroom unit at the Charlesview is occupied by the holder of a Section 8 Certificate, thereby satisfying the terms of Modern Continental's obligation as it pertains to the Charlesview Project. In addition, Modern Continental agreed to create two (2) additional affordable units for homeownership at an off-site location [6 Gordon Ave.]...""

DND docs specify project at Parcel 503939000 (=534-538 Comm. Ave.) had offsite IDP units at 6 Gordon Ave [C/O #4479]",,42.3485,-71.0965,33524,,
752114.8388758,2949631.32179531,21599,1270,62 Cummings Road,62,Cummings,Road,2135,Brighton,Small Project,Prefile (Default),,,,,,0,6000 Sq. Ft. synagogue at 62 Cummings Road,,42.3414,-71.1451,0,0,
767850.808716133,2949374.18057731,21600,1274,Northeastern University - GrandMarc at Northeastern,291,St. Botolph,Street,,Fenway,Large Project,Construction Complete,2007/04/20 00:00:00+00,2011/04/14 00:00:00+00,2011/08/05 00:00:00+00,2015/01/16 00:00:00+00,2011/04/14 00:00:00+00,197650,"The project includes the demolition of the YMCA gymnasium fronting on St. Botolph Street and the construction of a new, 17-story building for the provision of 720 Northeastern dormitory beds. In March 2022, the BPDA voted to approve modifications to the interior to increase dorm beds to 930.",http://www.bostonplans.org/projects/development-projects/northeastern-university-grand-marc,42.3405,-71.0869,197650,0,
772647.119005382,2968603.34454672,21601,1275,180 Alford Street,180,Alford,Street,2129,Charlestown,Small Project,Construction Complete,,2007/01/11 00:00:00+00,2008/01/09 00:00:00+00,2009/10/08 00:00:00+00,,39600,Construction of Charlestown Water Handling Facility.,,42.3932,-71.0688,39600,0,
776462.578894138,2962172.51521681,21602,1277,Building 33,33,Third,Avenue,2129,Charlestown,Small Project,Construction Complete,2006/12/05 00:00:00+00,2007/10/23 00:00:00+00,2008/04/04 00:00:00+00,2008/12/09 00:00:00+00,,49000,"Proponent is converting 49,000 square foot historic building in the Charlestown Navy Yard into 47 residential units.",,42.3755,-71.0548,49000,0,
764931.96251972,2943420.08290547,21603,1278,Jackson Square Redevelopment - Phase 1,225,Columbus,Avenue,2119,Jamaica Plain,Large Project,Construction Complete,2006/10/31 00:00:00+00,2010/04/13 00:00:00+00,2013/12/20 00:00:00+00,2015/06/02 00:00:00+00,2013/12/05 00:00:00+00,278200,225 Centre Street: 37 rental units of which 100% are affordable; reconstruction of the WEBB building.,http://www.bostonplans.org/Projects/Development-Projects/Jackson-Square-Redevelopment-Phase-1,42.3242,-71.0978,230000,0,
775347.796346799,2953055.9881743,21604,1279,179 Lincoln Street,179,Lincoln,Street,2111,Leather District,Large Project,Construction Complete,2006/12/04 00:00:00+00,2007/01/11 00:00:00+00,2007/12/17 00:00:00+00,2008/09/08 00:00:00+00,,42639,"Rehabilitation of  the former ""Teradyne"" office building. 40 - 60 below-grade parking spaces will also be provided.",,42.3505,-71.0591,250000,0,
776532.688005894,2938375.73931964,21605,128,65 Bay Street  Office and Graphic Svcs,65,Bay,Street,2125,Dorchester,Large Project,Construction Complete,2000/06/30 00:00:00+00,2000/09/21 00:00:00+00,,,,84000,"Redevelpoment of a vacant industrial lot into a 76,000 square feet graphics/media production facility to be occupied on a lease basis by Spire Communications.",,42.3102,-71.055,76000,,
775344.593925387,2953675.50005864,21606,1280,120 Kingston Street,120,Kingston,Street,2111,Chinatown,Large Project,Construction Complete,2007/03/22 00:00:00+00,2011/11/17 00:00:00+00,2012/08/21 00:00:00+00,2015/02/18 00:00:00+00,,231544,Proposal calls for 240 residential units with ground floor retail and 70 parking spaces.,http://www.bostonplans.org/Projects/Development-Projects/120-Kingston-Street,42.3522,-71.0591,228865,0,
754499.353791803,2954706.89727406,21607,1282,Penniman on the Park,20-26,Penniman,Road,2134,Allston,Small Project,Construction Complete,2008/10/28 00:00:00+00,2011/12/16 00:00:00+00,2016/08/22 00:00:00+00,2018/06/29 00:00:00+00,2011/12/16 00:00:00+00,50206,The proposal consists of 36 condominium units with 17 covered parking spaces and 10 surface parking spaces available on an adjacent lot.,http://www.bostonplans.org/projects/development-projects/penniman-on-the-park,42.3553,-71.1362,36700,0,
779655.470802307,2961351.21108514,21608,1284,Boston East,102-148,Border,Street,2128,East Boston,Large Project,Construction Complete,2007/10/19 00:00:00+00,2013/08/15 00:00:00+00,2015/12/29 00:00:00+00,2018/03/05 00:00:00+00,2015/11/02 00:00:00+00,235005,"Proposal calls for approximately 200 residential units with 120 underground parking spaces, maritime park, community gallery, extension of the Harborwalk, built to suit marine facility that meets the required Designated Port Area supported use.",http://www.bostonplans.org/Projects/Development-Projects/Boston-East,42.3732,-71.043,216000,0,
773593.991455466,2947106.81929839,21609,1285,Greater Boston Food Bank,70,South Bay,Avenue,,South Boston,Large Project,Construction Complete,2007/04/23 00:00:00+00,2007/05/31 00:00:00+00,2008/03/20 00:00:00+00,2009/05/04 00:00:00+00,,110300,"The development of an approximately 110,000 square foot warehouse, which will replace the Food Bank's current facility.  The new facility will include expanded dry storage, cooler and freezer space, and refrigerated docks.",,42.3342,-71.0657,96000,0,
764137.748228893,2951324.40207057,21610,1286,121 Brookline Avenue,121,Brookline,Avenue,2115,Fenway,NPC,Construction Complete,2007/03/26 00:00:00+00,2010/12/14 00:00:00+00,2012/04/09 00:00:00+00,2014/09/29 00:00:00+00,,123300,"Proposal resulted in the construction of a new, 175-room Marriott Residence Inn.",,42.3459,-71.1006,117000,0,
778080.243309721,2952632.96014898,21611,1288,311 Summer Street,311-319,Summer,Street,2210,South Boston Waterfront,Small Project,Construction Complete,,2007/05/08 00:00:00+00,2009/07/17 00:00:00+00,,,5700,"Rehabilitation of exterior façade, and addition of a stepped-back, one-story office penthouse.  Also renovation of interior to provide headquarters for ADD Inc, with a mixture of other office, retail/service, restaurant, and accessory uses.",,42.3493,-71.049,63600,0,
765459.777737051,2951877.27137165,21612,1291,Avalon Nightclub,15-27,Lansdowne,Street,,Fenway,Small Project,Construction Complete,2007/04/13 00:00:00+00,2007/05/31 00:00:00+00,2008/06/19 00:00:00+00,2009/07/08 00:00:00+00,,49000,World class music hall to replace nightclub and provide 450-person function facility above.,,42.3474,-71.0957,47700,0,
778402.496602222,2953035.53775589,21613,1292,368 Congress Street,368,Congress,Street,,South Boston Waterfront,NPC,Construction Complete,,2010/11/16 00:00:00+00,2012/01/19 00:00:00+00,2013/05/30 00:00:00+00,,104900,"Rehabilitation of existing building for the provision of a 120-room hotel and 5,000sf of ground floor retial/restaurant use.",,42.3504,-71.0478,103000,0,
772949.746680975,2962190.89083622,21614,1293,75 West School Street,75,West School,Street,2129,Charlestown,Large Project,Construction Complete,2007/07/16 00:00:00+00,2012/02/16 00:00:00+00,2012/08/08 00:00:00+00,2013/07/26 00:00:00+00,,137700,New construction will provide for 99 residential units and 138 parking spaces. Relocation of the Knights of Columbus is included in the proposal.,,42.3756,-71.0678,137700,0,
763524.300636888,2949535.84593639,21615,1294,Emmanuel College - Fenway Residence Hall,400,The Fenway,Fenway,2115,Longwood Medical Area,Large Project,Construction Complete,2007/05/04 00:00:00+00,2008/07/17 00:00:00+00,,,,77500,Relocating and decreasing size of Academic Science Building that was already approved in their 2000 Master Plan. Known as Maureen Wilkens Science Center,,42.341,-71.1029,77500,0,
776169.348181382,2951019.45123689,21616,1297,Gillette,,A,Street,2210,South Boston Waterfront,Large Project,Construction Complete,,2007/10/03 00:00:00+00,2008/05/09 00:00:00+00,2010/04/13 00:00:00+00,,125000,"Interior renovations to Gillette Headquarters with 4,400sf of new construction to lobby area and landscape and signage improvements.",,42.3449,-71.0561,123000,0,
785312.585144222,2964479.8826493,21617,1298,East Boston Credit Union,466,Bennington,Street,,East Boston,Small Project,Construction Complete,2007/05/25 00:00:00+00,2007/07/19 00:00:00+00,2008/08/14 00:00:00+00,2009/05/20 00:00:00+00,,12915,"Proposal includes the demolition of existing auto parts store and a two family house and the construction of a Credit Union Bank at the corner of Swift, Bennington, and Saratoga Street.",,42.3817,-71.022,12915,0,
774387.569920808,2950536.49124481,21618,1299,275 Albany Street - The Troy,275,Albany,Street,2118,South End,Large Project,Construction Complete,2012/08/16 00:00:00+00,2013/03/14 00:00:00+00,2015/07/09 00:00:00+00,2016/01/12 00:00:00+00,,330000,Project calls for the redevelopment of the former Teradyne parking lot into a maximum of 380 residential units.,http://www.bostonplans.org/projects/development-projects/275-albany-street,42.3436,-71.0627,330000,0,
777969.614265889,2953106.13243097,21619,130,343 Congress Street,343,Congress,Street,2127,South Boston Waterfront,Large Project,Construction Complete,,1999/05/20 00:00:00+00,,,,112120,Proposed development involves renovation of 4 story parking facility into a 5 story first class office space and commercial retail space with parking.,,42.3506,-71.0494,122500,,
773669.085137308,2953594.01432922,21620,1302,Emerson College - Colonial Residences,98-108,Boylston,Street,,Downtown,Large Project,Construction Complete,,2007/08/14 00:00:00+00,2015/12/21 00:00:00+00,2016/03/02 00:00:00+00,,110000,364 student beds.  Exterior and colonial theatre remain unchanged. Approved in 2nd Amendment to IMP.,,42.352,-71.0653,110000,0,
768532.320804551,2942672.0466719,21621,1306,24-30 Rockland Street,24-30,Rockland,Street,,Roxbury,Small Project,Construction Complete,2007/04/20 00:00:00+00,2007/07/19 00:00:00+00,2008/12/30 00:00:00+00,2010/05/14 00:00:00+00,,20000,40 units of affordable HUD 202 Senior Housing,,42.3221,-71.0845,35226,0,
775163.036217645,2957428.18021731,21622,1309,Congress Street Garage,50,New Sudbury,Street,,Downtown,Large Project,Construction Complete,,2016/01/14 00:00:00+00,2017/07/19 00:00:00+00,,,547940,Mixed use project,,42.3625,-71.0597,547940,0,
771965.619712219,2953694.72442964,21623,1310,4-6 Newbury Street,4--6,Newbury,Street,,Back Bay,NPC,Construction Complete,2008/01/30 00:00:00+00,2011/05/12 00:00:00+00,2013/07/01 00:00:00+00,2016/10/31 00:00:00+00,,49000,Demolition of existing garage and construction of a 7-story mixed-use building: first 3 floors retail and top 4 floors residential (6 units).,,42.3523,-71.0716,49000,0,
774475.883720547,2954399.88312431,21624,1311,Modern Theatre,523-525,Washington,Street,,Downtown,Large Project,Construction Complete,2008/01/11 00:00:00+00,,,,,56200,"The restoration of the historic facade and the construction of a new 10-story residential addition to include cultural spaces, art gallery and upper floors with 180-200 bed student residences in 12 stories",,42.3542,-71.0623,56200,0,
772183.14585197,2953440.71804789,21625,1312,350 Boylston Street,350,Boylston,Street,2116,Back Bay,Large Project,Permitted / Under Construction,2007/12/18 00:00:00+00,2008/10/16 00:00:00+00,2022/10/04 00:00:00+00,,2021/07/13 00:00:00+00,221230,The proposed project consists of a 9-story mixed-use development with office and retail uses and a below-grade parking garage for approximately 150 vehicles.,http://www.bostonplans.org/Projects/Development-Projects/350-Boylston-Street,42.3516,-71.0708,221230,0,
774993.3876068,2953637.24455772,21626,1313,Oxford Ping On,12-Oct,Oxford,Street,2111,Chinatown,Large Project,Construction Complete,2008/10/26 00:00:00+00,2014/02/13 00:00:00+00,2014/05/22 00:00:00+00,2016/09/08 00:00:00+00,,56000,"The project provides 67 units of affordable/income restricted housing, and holds the off-site income restricted units for the 120 Kingston project.",http://www.bostonplans.org/Projects/Development-Projects/Oxford-Ping-On-Affordable-Housing-Project,42.3521,-71.0604,56000,0,
764379.335672215,2951689.96203497,21627,1314,Fenway Center - Parcel 7 Air Rights,75,Brookline,Avenue,2215,Fenway,Large Project,Permitted / Under Construction,2008/01/16 00:00:00+00,2016/10/20 00:00:00+00,2017/12/06 00:00:00+00,,2021/05/04 00:00:00+00,1369000,"The Notice of Project Change and PDA Amendment outline several changes to the approved Phase 2 project. Key modifications of the Proposed Project include:
- A shift in proposed uses of Buildings 3 and 4 from a mix of residential, office, and lab uses to a mix of office/R&D/lab and life sciences uses in order to address current investor and market demand for such uses in proximity to the Longwood Medical Area (LMA), robust public transit, and Boston University;
- A modest increase in the maximum height of Buildings 3 and 4 due primarily to the need for more expansive rooftop mechanicals and an increased floor-to-floor height necessary to accommodate office/R&D/lab and life sciences uses;
- A significant reduction of approximately 500 vehicle parking spaces on the Site;
- An increase of approximately 3,669 square feet (?SF?) of additional civic open space accessible to the public than was proposed in the previously approved project; and
- The provision of over a half-acre of outdoor, landscaped roof terrace space for Phase 2 building tenants that will provide a break in the massing of the overall development as well as an open-air link between the two buildings;",http://www.bostonplans.org/projects/development-projects/parcel-7-air-rights,42.3469,-71.0997,1136000,530000,
781000.437928632,2952502.81408381,21628,1315,Liberty Wharf,242,Northern,Avenue,2210,South Boston Waterfront,Large Project,Construction Complete,2007/10/31 00:00:00+00,2008/01/31 00:00:00+00,2012/10/15 00:00:00+00,,,45000,"65,000 square feet of total development; Building A - 20,000 sq feet; Building B - 40,000 sq feet. Restaurant and office uses.",,42.3489,-71.0382,65000,0,
762088.498062298,2920703.30025515,21629,1316,892 River Street,854-912,River,Street,,Hyde Park,Large Project,Construction Complete,2007/12/21 00:00:00+00,2008/05/15 00:00:00+00,2009/07/10 00:00:00+00,2010/01/20 00:00:00+00,2022/04/14 00:00:00+00,104700,"Construction of a retail shopping center, including 99,398sf of new construction in 7 buildings and rehabilitation of 5,321sf existing powerhouse and smokestack, totalling approximately 104,718sf. 321 parking spaces will also be provided.",,42.2619,-71.1087,104719,0,
767377.497654885,2952214.42588106,21630,1317,93 Massachusetts Avenue,93-97,Massachusetts,Avenue,,Back Bay,NPC,Construction Complete,2008/04/09 00:00:00+00,2010/10/12 00:00:00+00,2012/10/16 00:00:00+00,2014/07/08 00:00:00+00,,30140,Project includes the rehabilitation of the existing 4-story building at the corner of Newbury St and Mass Ave in Back Bay for the provision of retail space.,http://www.bostonplans.org/Projects/Development-Projects/93-Massachusetts-Avenue,42.3483,-71.0886,30140,0,
769352.624610141,2951859.60933347,21631,1320,Prudential Redevelopment (Parcel 4 and 6),888,Boylston,Street,2119,Back Bay,Large Project,Construction Complete,2007/08/31 00:00:00+00,2008/12/04 00:00:00+00,2015/09/29 00:00:00+00,2016/10/03 00:00:00+00,,420000,"Redevelopment includes Parcel 4/4A known as 888 Boylston Street a 17-story office building w/ 422,00 GSF, and Partcel 6 known as Exeter Residences,28-story, 242,000sf residential development with 188 units and 52 affordable units spread across 4 sites.",,42.3473,-71.0813,664052,0,
767084.527768388,2951301.94607873,21632,1321,The Boston Conservatory - 31 Hemenway Street,27-31,Hemenway,Street,,Fenway,Small Project,Construction Complete,2007/11/21 00:00:00+00,2008/02/26 00:00:00+00,2009/04/27 00:00:00+00,2010/09/02 00:00:00+00,,15000,"Renovation of 23,000sf existing theater and new construction of 15,000sf for additional space and classrooms",,42.3458,-71.0897,38000,0,
758179.665000722,2953738.93398689,21633,1322,1047 Commonwealth Avenue,1047,Commonwealth,Avenue,2134,Allston,Large Project,Construction Complete,2008/03/14 00:00:00+00,2013/06/13 00:00:00+00,2015/03/27 00:00:00+00,2017/02/06 00:00:00+00,2022/03/28 00:00:00+00,100000,Proposal calls for 180 SRO units.,http://www.bostonplans.org/Projects/Development-Projects/1047-Commonwealth-Avenue,42.3526,-71.1226,90000,0,
750200.995918721,2948238.62051247,21634,1324,332 Chestnut Hill Avenue,332,Chestnut Hill,Avenue,2135,Brighton,Large Project,Board Approved,2008/08/20 00:00:00+00,2008/11/13 00:00:00+00,2013/08/08 00:00:00+00,,2008/05/24 00:00:00+00,120000,"Project consists of the demolition of the exisitng gas station and the construction of 58 residential units, 14,000sf of retail and 103 undergroud parking spaces.",,42.3376,-71.1522,94000,0,
774662.280329391,2954947.48340707,21635,1325,30 Winter Street,30,Winter,Street,2108,Downtown,Small Project,Prefile (Default),,,,,,0,add 1 to 3 stories on top of existing 12 story structure and add a build out of alleyway easement,,42.3557,-71.0616,0,0,
754108.71448122,2957584.21172939,21636,1326,Charlesview Redevelopment,355 - 400,Western,Avenue,2135,Brighton,Large Project,Construction Complete,2008/02/11 00:00:00+00,2010/09/21 00:00:00+00,2016/03/15 00:00:00+00,2015/01/29 00:00:00+00,2014/09/10 00:00:00+00,531544,"The proposal calls for 340 units of housing, including 213 replacement units for existing Charlesview residents and 100 homeownership units.",http://www.bostonplans.org/projects/development-projects/charlesview-redevelopment,42.3632,-71.1376,470163,0,
774021.59821181,2953377.15682331,21637,1327,45 Stuart Street,45,Stuart,Street,2116,Downtown,Large Project,Construction Complete,2011/08/10 00:00:00+00,2011/11/17 00:00:00+00,2013/07/18 00:00:00+00,2015/04/27 00:00:00+00,2023/05/05 00:00:00+00,384000,Proposal calls for 398 residential units in a 29 story building and 198 parking spaces.,http://www.bostonplans.org/Projects/Development-Projects/45-Stuart-Street,42.3514,-71.064,384000,0,
774455.958563551,2953014.95282331,21638,1328,Tufts University Health Campus -  Dental Addition,1,Kneeland,Street,2111,Chinatown,Large Project,Construction Complete,2007/03/15 00:00:00+00,2007/10/03 00:00:00+00,2012/12/03 00:00:00+00,2014/09/23 00:00:00+00,2007/12/12 00:00:00+00,95566,"Tufts proposes a vertical expansion of five additional floors above the existing tenth floor of the existing School of Dental Medicine building. Total expansion will be 95,566 SF",http://www.bostonplans.org/projects/development-projects/tufts-university-health-campus-dental-addition,42.3504,-71.0624,95566,0,
762953.524219394,2950189.16385548,21639,1329,Wheelock College - Campus Center and Student Residence,150,The Riverway,,,Longwood Medical Area,Large Project,Construction Complete,,2007/07/19 00:00:00+00,2008/01/31 00:00:00+00,2009/05/08 00:00:00+00,2007/07/19 00:00:00+00,60000,"CCSR will consist of  a 2-story campus center including a student lounge, cafÃ©, multipurpose rooms and 115 beds",http://www.bostonplans.org/projects/development-projects/wheelock-college-campus-center-and-student-resid,42.3428,-71.105,60000,0,
773560.777939215,2953629.90566164,21640,133,The Walker Building,120,Boylston,Street,2116,Downtown,Large Project,Construction Complete,,,,,,157000,"Project involves acquisition  and minor improvements not subject to Art.80 review. Therefore nor ""project"" data is available",,42.3521,-71.0657,157000,,
780595.314395055,2962449.55829789,21641,1330,248 Meridian Street,248,Meridian,Street,2128,East Boston,Large Project,Construction Complete,2008/02/19 00:00:00+00,2014/04/17 00:00:00+00,2015/02/20 00:00:00+00,2017/03/08 00:00:00+00,2016/10/24 00:00:00+00,101567,"A new construction of a mixed-use structure, on a lot currently occupied by the vacant Seville Theater in East Boston. Includes 66 residential units, 15,000 square feet of commercial/ retail space, 44 parking spaces, and related site improvements.",http://www.bostonplans.org/Projects/Development-Projects/248-Meridian-Street,42.3762,-71.0395,101567,0,
757065.585535973,2930337.96766555,21642,1331,Staples (Roslindale),4165,Washington,Street,,Roslindale,Small Project,Construction Complete,2007/06/15 00:00:00+00,2007/07/19 00:00:00+00,2008/02/06 00:00:00+00,2008/09/10 00:00:00+00,,19300,"The Proposed Project consists of a demolition of the existing Ashmont Discount Center followed by a new construction of approximately 19,300 square foot retail space, sixty-five (65) parking spaces, and related site improvements.",,42.2884,-71.1271,19300,0,
